{"type":"FeatureCollection","features":[{"type":"Feature","geometry":{"type":"Point","coordinates":[127.966759,45.648633]},"properties":{"level":"city","name":"哈尔滨市","name:zh":"哈尔滨市"},"id":1659578104614},{"type":"Feature","geometry":{"type":"Point","coordinates":[126.373347,45.668664]},"properties":{"level":"district","name":"道里区","name:zh":"道里区"},"id":1659578104615},{"type":"Feature","geometry":{"type":"Point","coordinates":[126.57275,45.650527]},"properties":{"level":"district","name":"南岗区","name:zh":"南岗区"},"id":1659578104615},{"type":"Feature","geometry":{"type":"Point","coordinates":[126.893475,45.847448]},"properties":{"level":"district","name":"道外区","name:zh":"道外区"},"id":1659578104616},{"type":"Feature","geometry":{"type":"Point","coordinates":[126.665235,45.58458]},"properties":{"level":"district","name":"平房区","name:zh":"平房区"},"id":1659578104616},{"type":"Feature","geometry":{"type":"Point","coordinates":[126.434402,45.913435]},"properties":{"level":"district","name":"松北区","name:zh":"松北区"},"id":1659578104617},{"type":"Feature","geometry":{"type":"Point","coordinates":[126.781726,45.698799]},"properties":{"level":"district","name":"香坊区","name:zh":"香坊区"},"id":1659578104617},{"type":"Feature","geometry":{"type":"Point","coordinates":[126.809801,46.133447]},"properties":{"level":"district","name":"呼兰区","name:zh":"呼兰区"},"id":1659578104618},{"type":"Feature","geometry":{"type":"Point","coordinates":[127.162108,45.479923]},"properties":{"level":"district","name":"阿城区","name:zh":"阿城区"},"id":1659578104619},{"type":"Feature","geometry":{"type":"Point","coordinates":[126.182557,45.403569]},"properties":{"level":"district","name":"双城区","name:zh":"双城区"},"id":1659578104620},{"type":"Feature","geometry":{"type":"Point","coordinates":[129.715068,46.268547]},"properties":{"level":"district","name":"依兰县","name:zh":"依兰县"},"id":1659578104621},{"type":"Feature","geometry":{"type":"Point","coordinates":[128.943056,45.814215]},"properties":{"level":"district","name":"方正县","name:zh":"方正县"},"id":1659578104621},{"type":"Feature","geometry":{"type":"Point","coordinates":[127.65409,45.778069]},"properties":{"level":"district","name":"宾县","name:zh":"宾县"},"id":1659578104622},{"type":"Feature","geometry":{"type":"Point","coordinates":[127.31892,46.335125]},"properties":{"level":"district","name":"巴彦县","name:zh":"巴彦县"},"id":1659578104622},{"type":"Feature","geometry":{"type":"Point","coordinates":[127.925557,46.240125]},"properties":{"level":"district","name":"木兰县","name:zh":"木兰县"},"id":1659578104623},{"type":"Feature","geometry":{"type":"Point","coordinates":[128.755965,46.24237]},"properties":{"level":"district","name":"通河县","name:zh":"通河县"},"id":1659578104623},{"type":"Feature","geometry":{"type":"Point","coordinates":[128.457185,45.488029]},"properties":{"level":"district","name":"延寿县","name:zh":"延寿县"},"id":1659578104624},{"type":"Feature","geometry":{"type":"Point","coordinates":[128.317371,45.077956]},"properties":{"level":"district","name":"尚志市","name:zh":"尚志市"},"id":1659578104625},{"type":"Feature","geometry":{"type":"Point","coordinates":[127.484789,44.766503]},"properties":{"level":"district","name":"五常市","name:zh":"五常市"},"id":1659578104626},{"type":"Feature","geometry":{"type":"Point","coordinates":[124.557904,47.710767]},"properties":{"level":"city","name":"齐齐哈尔市","name:zh":"齐齐哈尔市"},"id":1659578104626},{"type":"Feature","geometry":{"type":"Point","coordinates":[123.922001,47.269065]},"properties":{"level":"district","name":"龙沙区","name:zh":"龙沙区"},"id":1659578104626},{"type":"Feature","geometry":{"type":"Point","coordinates":[124.016527,47.401273]},"properties":{"level":"district","name":"建华区","name:zh":"建华区"},"id":1659578104627},{"type":"Feature","geometry":{"type":"Point","coordinates":[124.240846,47.287161]},"properties":{"level":"district","name":"铁锋区","name:zh":"铁锋区"},"id":1659578104627},{"type":"Feature","geometry":{"type":"Point","coordinates":[123.959687,47.136353]},"properties":{"level":"district","name":"昂昂溪区","name:zh":"昂昂溪区"},"id":1659578104627},{"type":"Feature","geometry":{"type":"Point","coordinates":[123.590228,47.222379]},"properties":{"level":"district","name":"富拉尔基区","name:zh":"富拉尔基区"},"id":1659578104628},{"type":"Feature","geometry":{"type":"Point","coordinates":[122.925333,47.578383]},"properties":{"level":"district","name":"碾子山区","name:zh":"碾子山区"},"id":1659578104628},{"type":"Feature","geometry":{"type":"Point","coordinates":[123.859514,47.563791]},"properties":{"level":"district","name":"梅里斯达斡尔族区","name:zh":"梅里斯达斡尔族区"},"id":1659578104629},{"type":"Feature","geometry":{"type":"Point","coordinates":[123.080975,47.24642]},"properties":{"level":"district","name":"龙江县","name:zh":"龙江县"},"id":1659578104630},{"type":"Feature","geometry":{"type":"Point","coordinates":[125.288013,47.700556]},"properties":{"level":"district","name":"依安县","name:zh":"依安县"},"id":1659578104631},{"type":"Feature","geometry":{"type":"Point","coordinates":[123.551063,46.598159]},"properties":{"level":"district","name":"泰来县","name:zh":"泰来县"},"id":1659578104631},{"type":"Feature","geometry":{"type":"Point","coordinates":[123.836525,48.004787]},"properties":{"level":"district","name":"甘南县","name:zh":"甘南县"},"id":1659578104631},{"type":"Feature","geometry":{"type":"Point","coordinates":[124.566231,47.662945]},"properties":{"level":"district","name":"富裕县","name:zh":"富裕县"},"id":1659578104632},{"type":"Feature","geometry":{"type":"Point","coordinates":[125.699713,48.161786]},"properties":{"level":"district","name":"克山县","name:zh":"克山县"},"id":1659578104632},{"type":"Feature","geometry":{"type":"Point","coordinates":[126.34414,48.004388]},"properties":{"level":"district","name":"克东县","name:zh":"克东县"},"id":1659578104632},{"type":"Feature","geometry":{"type":"Point","coordinates":[126.01491,47.585918]},"properties":{"level":"district","name":"拜泉县","name:zh":"拜泉县"},"id":1659578104633},{"type":"Feature","geometry":{"type":"Point","coordinates":[125.069101,48.475872]},"properties":{"level":"district","name":"讷河市","name:zh":"讷河市"},"id":1659578104633},{"type":"Feature","geometry":{"type":"Point","coordinates":[132.297639,45.635227]},"properties":{"level":"city","name":"鸡西市","name:zh":"鸡西市"},"id":1659578104634},{"type":"Feature","geometry":{"type":"Point","coordinates":[130.950185,45.288532]},"properties":{"level":"district","name":"鸡冠区","name:zh":"鸡冠区"},"id":1659578104634},{"type":"Feature","geometry":{"type":"Point","coordinates":[130.913982,45.158084]},"properties":{"level":"district","name":"恒山区","name:zh":"恒山区"},"id":1659578104635},{"type":"Feature","geometry":{"type":"Point","coordinates":[130.740863,45.364378]},"properties":{"level":"district","name":"滴道区","name:zh":"滴道区"},"id":1659578104636},{"type":"Feature","geometry":{"type":"Point","coordinates":[130.739041,45.084128]},"properties":{"level":"district","name":"梨树区","name:zh":"梨树区"},"id":1659578104637},{"type":"Feature","geometry":{"type":"Point","coordinates":[131.019558,45.377254]},"properties":{"level":"district","name":"城子河区","name:zh":"城子河区"},"id":1659578104637},{"type":"Feature","geometry":{"type":"Point","coordinates":[130.541203,45.204504]},"properties":{"level":"district","name":"麻山区","name:zh":"麻山区"},"id":1659578104637},{"type":"Feature","geometry":{"type":"Point","coordinates":[131.218803,45.265887]},"properties":{"level":"district","name":"鸡东县","name:zh":"鸡东县"},"id":1659578104638},{"type":"Feature","geometry":{"type":"Point","coordinates":[133.113612,45.991345]},"properties":{"level":"district","name":"虎林市","name:zh":"虎林市"},"id":1659578104639},{"type":"Feature","geometry":{"type":"Point","coordinates":[132.169979,45.463473]},"properties":{"level":"district","name":"密山市","name:zh":"密山市"},"id":1659578104639},{"type":"Feature","geometry":{"type":"Point","coordinates":[130.807059,47.644529]},"properties":{"level":"city","name":"鹤岗市","name:zh":"鹤岗市"},"id":1659578104640},{"type":"Feature","geometry":{"type":"Point","coordinates":[130.296455,47.339377]},"properties":{"level":"district","name":"向阳区","name:zh":"向阳区"},"id":1659578104640},{"type":"Feature","geometry":{"type":"Point","coordinates":[130.266138,47.317975]},"properties":{"level":"district","name":"工农区","name:zh":"工农区"},"id":1659578104640},{"type":"Feature","geometry":{"type":"Point","coordinates":[130.287309,47.281452]},"properties":{"level":"district","name":"南山区","name:zh":"南山区"},"id":1659578104640},{"type":"Feature","geometry":{"type":"Point","coordinates":[130.150352,47.246092]},"properties":{"level":"district","name":"兴安区","name:zh":"兴安区"},"id":1659578104641},{"type":"Feature","geometry":{"type":"Point","coordinates":[130.418188,47.251774]},"properties":{"level":"district","name":"东山区","name:zh":"东山区"},"id":1659578104641},{"type":"Feature","geometry":{"type":"Point","coordinates":[130.32132,47.387203]},"properties":{"level":"district","name":"兴山区","name:zh":"兴山区"},"id":1659578104642},{"type":"Feature","geometry":{"type":"Point","coordinates":[130.57235,47.784893]},"properties":{"level":"district","name":"萝北县","name:zh":"萝北县"},"id":1659578104642},{"type":"Feature","geometry":{"type":"Point","coordinates":[131.848743,47.477805]},"properties":{"level":"district","name":"绥滨县","name:zh":"绥滨县"},"id":1659578104642},{"type":"Feature","geometry":{"type":"Point","coordinates":[132.623042,46.721849]},"properties":{"level":"city","name":"双鸭山市","name:zh":"双鸭山市"},"id":1659578104643},{"type":"Feature","geometry":{"type":"Point","coordinates":[131.171984,46.645541]},"properties":{"level":"district","name":"尖山区","name:zh":"尖山区"},"id":1659578104643},{"type":"Feature","geometry":{"type":"Point","coordinates":[131.193643,46.487647]},"properties":{"level":"district","name":"岭东区","name:zh":"岭东区"},"id":1659578104644},{"type":"Feature","geometry":{"type":"Point","coordinates":[131.2822,46.673572]},"properties":{"level":"district","name":"四方台区","name:zh":"四方台区"},"id":1659578104644},{"type":"Feature","geometry":{"type":"Point","coordinates":[131.516921,46.525767]},"properties":{"level":"district","name":"宝山区","name:zh":"宝山区"},"id":1659578104645},{"type":"Feature","geometry":{"type":"Point","coordinates":[131.145553,46.815619]},"properties":{"level":"district","name":"集贤县","name:zh":"集贤县"},"id":1659578104645},{"type":"Feature","geometry":{"type":"Point","coordinates":[131.849444,46.783439]},"properties":{"level":"district","name":"友谊县","name:zh":"友谊县"},"id":1659578104645},{"type":"Feature","geometry":{"type":"Point","coordinates":[132.396406,46.404143]},"properties":{"level":"district","name":"宝清县","name:zh":"宝清县"},"id":1659578104648},{"type":"Feature","geometry":{"type":"Point","coordinates":[133.79731,47.130859]},"properties":{"level":"district","name":"饶河县","name:zh":"饶河县"},"id":1659578104648},{"type":"Feature","geometry":{"type":"Point","coordinates":[124.705742,46.357625]},"properties":{"level":"city","name":"大庆市","name:zh":"大庆市"},"id":1659578104648},{"type":"Feature","geometry":{"type":"Point","coordinates":[125.061613,46.707789]},"properties":{"level":"district","name":"萨尔图区","name:zh":"萨尔图区"},"id":1659578104649},{"type":"Feature","geometry":{"type":"Point","coordinates":[125.126676,46.525707]},"properties":{"level":"district","name":"龙凤区","name:zh":"龙凤区"},"id":1659578104649},{"type":"Feature","geometry":{"type":"Point","coordinates":[124.778186,46.702338]},"properties":{"level":"district","name":"让胡路区","name:zh":"让胡路区"},"id":1659578104649},{"type":"Feature","geometry":{"type":"Point","coordinates":[124.882963,46.350759]},"properties":{"level":"district","name":"红岗区","name:zh":"红岗区"},"id":1659578104650},{"type":"Feature","geometry":{"type":"Point","coordinates":[124.683351,46.07855]},"properties":{"level":"district","name":"大同区","name:zh":"大同区"},"id":1659578104650},{"type":"Feature","geometry":{"type":"Point","coordinates":[125.300039,45.835306]},"properties":{"level":"district","name":"肇州县","name:zh":"肇州县"},"id":1659578104650},{"type":"Feature","geometry":{"type":"Point","coordinates":[124.761625,45.642848]},"properties":{"level":"district","name":"肇源县","name:zh":"肇源县"},"id":1659578104651},{"type":"Feature","geometry":{"type":"Point","coordinates":[124.898566,47.152984]},"properties":{"level":"district","name":"林甸县","name:zh":"林甸县"},"id":1659578104651},{"type":"Feature","geometry":{"type":"Point","coordinates":[124.237738,46.55838]},"properties":{"level":"district","name":"杜尔伯特蒙古族自治县","name:zh":"杜尔伯特蒙古族自治县"},"id":1659578104651},{"type":"Feature","geometry":{"type":"Point","coordinates":[129.224747,47.830729]},"properties":{"level":"city","name":"伊春市","name:zh":"伊春市"},"id":1659578104652},{"type":"Feature","geometry":{"type":"Point","coordinates":[129.271167,47.757325]},"properties":{"level":"district","name":"伊美区","name:zh":"伊美区"},"id":1659578104652},{"type":"Feature","geometry":{"type":"Point","coordinates":[128.571433,47.632725]},"properties":{"level":"district","name":"乌翠区","name:zh":"乌翠区"},"id":1659578104652},{"type":"Feature","geometry":{"type":"Point","coordinates":[128.66894,48.077392]},"properties":{"level":"district","name":"友好区","name:zh":"友好区"},"id":1659578104653},{"type":"Feature","geometry":{"type":"Point","coordinates":[130.001867,48.764532]},"properties":{"level":"district","name":"嘉荫县","name:zh":"嘉荫县"},"id":1659578104653},{"type":"Feature","geometry":{"type":"Point","coordinates":[129.461378,48.605304]},"properties":{"level":"district","name":"汤旺县","name:zh":"汤旺县"},"id":1659578104653},{"type":"Feature","geometry":{"type":"Point","coordinates":[129.376317,48.23738]},"properties":{"level":"district","name":"丰林县","name:zh":"丰林县"},"id":1659578104654},{"type":"Feature","geometry":{"type":"Point","coordinates":[128.925056,46.868408]},"properties":{"level":"district","name":"大箐山县","name:zh":"大箐山县"},"id":1659578104654},{"type":"Feature","geometry":{"type":"Point","coordinates":[129.381017,47.07615]},"properties":{"level":"district","name":"南岔县","name:zh":"南岔县"},"id":1659578104654},{"type":"Feature","geometry":{"type":"Point","coordinates":[129.543594,47.499335]},"properties":{"level":"district","name":"金林区","name:zh":"金林区"},"id":1659578104655},{"type":"Feature","geometry":{"type":"Point","coordinates":[128.289584,46.919713]},"properties":{"level":"district","name":"铁力市","name:zh":"铁力市"},"id":1659578104655},{"type":"Feature","geometry":{"type":"Point","coordinates":[132.204856,47.248466]},"properties":{"level":"city","name":"佳木斯市","name:zh":"佳木斯市"},"id":1659578104658},{"type":"Feature","geometry":{"type":"Point","coordinates":[130.359814,46.818292]},"properties":{"level":"district","name":"向阳区","name:zh":"向阳区"},"id":1659578104658},{"type":"Feature","geometry":{"type":"Point","coordinates":[130.407338,46.775985]},"properties":{"level":"district","name":"前进区","name:zh":"前进区"},"id":1659578104659},{"type":"Feature","geometry":{"type":"Point","coordinates":[130.446855,46.799941]},"properties":{"level":"district","name":"东风区","name:zh":"东风区"},"id":1659578104659},{"type":"Feature","geometry":{"type":"Point","coordinates":[130.268488,46.772211]},"properties":{"level":"district","name":"郊区","name:zh":"郊区"},"id":1659578104659},{"type":"Feature","geometry":{"type":"Point","coordinates":[130.709063,46.283451]},"properties":{"level":"district","name":"桦南县","name:zh":"桦南县"},"id":1659578104660},{"type":"Feature","geometry":{"type":"Point","coordinates":[130.948398,46.981601]},"properties":{"level":"district","name":"桦川县","name:zh":"桦川县"},"id":1659578104660},{"type":"Feature","geometry":{"type":"Point","coordinates":[129.904463,46.730048]},"properties":{"level":"district","name":"汤原县","name:zh":"汤原县"},"id":1659578104661},{"type":"Feature","geometry":{"type":"Point","coordinates":[133.267156,47.828699]},"properties":{"level":"district","name":"同江市","name:zh":"同江市"},"id":1659578104661},{"type":"Feature","geometry":{"type":"Point","coordinates":[132.531211,47.164848]},"properties":{"level":"district","name":"富锦市","name:zh":"富锦市"},"id":1659578104662},{"type":"Feature","geometry":{"type":"Point","coordinates":[134.276606,47.966858]},"properties":{"level":"district","name":"抚远市","name:zh":"抚远市"},"id":1659578104662},{"type":"Feature","geometry":{"type":"Point","coordinates":[130.943937,45.881675]},"properties":{"level":"city","name":"七台河市","name:zh":"七台河市"},"id":1659578104663},{"type":"Feature","geometry":{"type":"Point","coordinates":[131.162257,45.958252]},"properties":{"level":"district","name":"新兴区","name:zh":"新兴区"},"id":1659578104663},{"type":"Feature","geometry":{"type":"Point","coordinates":[130.992785,45.758662]},"properties":{"level":"district","name":"桃山区","name:zh":"桃山区"},"id":1659578104663},{"type":"Feature","geometry":{"type":"Point","coordinates":[131.464111,45.887993]},"properties":{"level":"district","name":"茄子河区","name:zh":"茄子河区"},"id":1659578104664},{"type":"Feature","geometry":{"type":"Point","coordinates":[130.489212,45.829924]},"properties":{"level":"district","name":"勃利县","name:zh":"勃利县"},"id":1659578104664},{"type":"Feature","geometry":{"type":"Point","coordinates":[129.895544,44.607512]},"properties":{"level":"city","name":"牡丹江市","name:zh":"牡丹江市"},"id":1659578104665},{"type":"Feature","geometry":{"type":"Point","coordinates":[129.834861,44.385592]},"properties":{"level":"district","name":"东安区","name:zh":"东安区"},"id":1659578104667},{"type":"Feature","geometry":{"type":"Point","coordinates":[129.874721,44.660181]},"properties":{"level":"district","name":"阳明区","name:zh":"阳明区"},"id":1659578104667},{"type":"Feature","geometry":{"type":"Point","coordinates":[129.514243,44.708453]},"properties":{"level":"district","name":"爱民区","name:zh":"爱民区"},"id":1659578104668},{"type":"Feature","geometry":{"type":"Point","coordinates":[129.533997,44.490417]},"properties":{"level":"district","name":"西安区","name:zh":"西安区"},"id":1659578104668},{"type":"Feature","geometry":{"type":"Point","coordinates":[130.032332,45.44]},"properties":{"level":"district","name":"林口县","name:zh":"林口县"},"id":1659578104669},{"type":"Feature","geometry":{"type":"Point","coordinates":[131.095149,44.401989]},"properties":{"level":"district","name":"绥芬河市","name:zh":"绥芬河市"},"id":1659578104669},{"type":"Feature","geometry":{"type":"Point","coordinates":[129.218049,44.908403]},"properties":{"level":"district","name":"海林市","name:zh":"海林市"},"id":1659578104669},{"type":"Feature","geometry":{"type":"Point","coordinates":[129.210232,44.053833]},"properties":{"level":"district","name":"宁安市","name:zh":"宁安市"},"id":1659578104670},{"type":"Feature","geometry":{"type":"Point","coordinates":[130.421978,44.570685]},"properties":{"level":"district","name":"穆棱市","name:zh":"穆棱市"},"id":1659578104670},{"type":"Feature","geometry":{"type":"Point","coordinates":[130.840358,44.021379]},"properties":{"level":"district","name":"东宁市","name:zh":"东宁市"},"id":1659578104671},{"type":"Feature","geometry":{"type":"Point","coordinates":[126.988643,49.282601]},"properties":{"level":"city","name":"黑河市","name:zh":"黑河市"},"id":1659578104671},{"type":"Feature","geometry":{"type":"Point","coordinates":[126.733255,50.225369]},"properties":{"level":"district","name":"爱辉区","name:zh":"爱辉区"},"id":1659578104672},{"type":"Feature","geometry":{"type":"Point","coordinates":[128.612059,49.036567]},"properties":{"level":"district","name":"逊克县","name:zh":"逊克县"},"id":1659578104672},{"type":"Feature","geometry":{"type":"Point","coordinates":[127.326919,49.397597]},"properties":{"level":"district","name":"孙吴县","name:zh":"孙吴县"},"id":1659578104673},{"type":"Feature","geometry":{"type":"Point","coordinates":[127.106492,48.110797]},"properties":{"level":"district","name":"北安市","name:zh":"北安市"},"id":1659578104673},{"type":"Feature","geometry":{"type":"Point","coordinates":[127.185552,48.685818]},"properties":{"level":"district","name":"五大连池市","name:zh":"五大连池市"},"id":1659578104674},{"type":"Feature","geometry":{"type":"Point","coordinates":[125.76615,49.604607]},"properties":{"level":"district","name":"嫩江市","name:zh":"嫩江市"},"id":1659578104674},{"type":"Feature","geometry":{"type":"Point","coordinates":[126.658429,46.904079]},"properties":{"level":"city","name":"绥化市","name:zh":"绥化市"},"id":1659578104675},{"type":"Feature","geometry":{"type":"Point","coordinates":[126.950889,46.741733]},"properties":{"level":"district","name":"北林区","name:zh":"北林区"},"id":1659578104676},{"type":"Feature","geometry":{"type":"Point","coordinates":[126.58614,46.863437]},"properties":{"level":"district","name":"望奎县","name:zh":"望奎县"},"id":1659578104676},{"type":"Feature","geometry":{"type":"Point","coordinates":[126.207342,46.35243]},"properties":{"level":"district","name":"兰西县","name:zh":"兰西县"},"id":1659578104676},{"type":"Feature","geometry":{"type":"Point","coordinates":[125.949701,46.840916]},"properties":{"level":"district","name":"青冈县","name:zh":"青冈县"},"id":1659578104677},{"type":"Feature","geometry":{"type":"Point","coordinates":[127.510024,46.879203]},"properties":{"level":"district","name":"庆安县","name:zh":"庆安县"},"id":1659578104678},{"type":"Feature","geometry":{"type":"Point","coordinates":[125.834688,47.195074]},"properties":{"level":"district","name":"明水县","name:zh":"明水县"},"id":1659578104678},{"type":"Feature","geometry":{"type":"Point","coordinates":[127.716712,47.579065]},"properties":{"level":"district","name":"绥棱县","name:zh":"绥棱县"},"id":1659578104679},{"type":"Feature","geometry":{"type":"Point","coordinates":[125.378423,46.529838]},"properties":{"level":"district","name":"安达市","name:zh":"安达市"},"id":1659578104679},{"type":"Feature","geometry":{"type":"Point","coordinates":[125.842965,46.004307]},"properties":{"level":"district","name":"肇东市","name:zh":"肇东市"},"id":1659578104679},{"type":"Feature","geometry":{"type":"Point","coordinates":[126.885178,47.438796]},"properties":{"level":"district","name":"海伦市","name:zh":"海伦市"},"id":1659578104680},{"type":"Feature","geometry":{"type":"Point","coordinates":[124.201147,52.341079]},"properties":{"level":"city","name":"大兴安岭地区","name:zh":"大兴安岭地区"},"id":1659578104680},{"type":"Feature","geometry":{"type":"Point","coordinates":[122.708322,52.939967]},"properties":{"level":"district","name":"漠河市","name:zh":"漠河市"},"id":1659578104681},{"type":"Feature","geometry":{"type":"Point","coordinates":[124.138005,50.375673]},"properties":{"level":"district","name":"加格达奇区","name:zh":"加格达奇区"},"id":1659578104681},{"type":"Feature","geometry":{"type":"Point","coordinates":[124.905528,51.806434]},"properties":{"level":"district","name":"呼玛县","name:zh":"呼玛县"},"id":1659578104682},{"type":"Feature","geometry":{"type":"Point","coordinates":[124.63412,52.711298]},"properties":{"level":"district","name":"塔河县","name:zh":"塔河县"},"id":1659578104682},{"type":"Feature","geometry":{"type":"Point","coordinates":[101.438463,36.827772]},"properties":{"level":"city","name":"西宁市","name:zh":"西宁市"},"id":1659578104683},{"type":"Feature","geometry":{"type":"Point","coordinates":[101.840903,36.583124]},"properties":{"level":"district","name":"城东区","name:zh":"城东区"},"id":1659578104683},{"type":"Feature","geometry":{"type":"Point","coordinates":[101.720772,36.547025]},"properties":{"level":"district","name":"城中区","name:zh":"城中区"},"id":1659578104683},{"type":"Feature","geometry":{"type":"Point","coordinates":[101.698025,36.626988]},"properties":{"level":"district","name":"城西区","name:zh":"城西区"},"id":1659578104684},{"type":"Feature","geometry":{"type":"Point","coordinates":[101.699377,36.680565]},"properties":{"level":"district","name":"城北区","name:zh":"城北区"},"id":1659578104684},{"type":"Feature","geometry":{"type":"Point","coordinates":[101.524222,36.60139]},"properties":{"level":"district","name":"湟中区","name:zh":"湟中区"},"id":1659578104684},{"type":"Feature","geometry":{"type":"Point","coordinates":[101.459081,37.131876]},"properties":{"level":"district","name":"大通回族土族自治县","name:zh":"大通回族土族自治县"},"id":1659578104685},{"type":"Feature","geometry":{"type":"Point","coordinates":[101.169732,36.618495]},"properties":{"level":"district","name":"湟源县","name:zh":"湟源县"},"id":1659578104685},{"type":"Feature","geometry":{"type":"Point","coordinates":[102.344727,36.335094]},"properties":{"level":"city","name":"海东市","name:zh":"海东市"},"id":1659578104688},{"type":"Feature","geometry":{"type":"Point","coordinates":[102.430838,36.486321]},"properties":{"level":"district","name":"乐都区","name:zh":"乐都区"},"id":1659578104689},{"type":"Feature","geometry":{"type":"Point","coordinates":[102.00597,36.40438]},"properties":{"level":"district","name":"平安区","name:zh":"平安区"},"id":1659578104690},{"type":"Feature","geometry":{"type":"Point","coordinates":[102.768516,36.137854]},"properties":{"level":"district","name":"民和回族土族自治县","name:zh":"民和回族土族自治县"},"id":1659578104691},{"type":"Feature","geometry":{"type":"Point","coordinates":[102.158079,36.84265]},"properties":{"level":"district","name":"互助土族自治县","name:zh":"互助土族自治县"},"id":1659578104692},{"type":"Feature","geometry":{"type":"Point","coordinates":[102.212305,36.080497]},"properties":{"level":"district","name":"化隆回族自治县","name:zh":"化隆回族自治县"},"id":1659578104693},{"type":"Feature","geometry":{"type":"Point","coordinates":[102.468435,35.717758]},"properties":{"level":"district","name":"循化撒拉族自治县","name:zh":"循化撒拉族自治县"},"id":1659578104695},{"type":"Feature","geometry":{"type":"Point","coordinates":[100.299858,37.765164]},"properties":{"level":"city","name":"海北藏族自治州","name:zh":"海北藏族自治州"},"id":1659578104696},{"type":"Feature","geometry":{"type":"Point","coordinates":[101.732157,37.45522]},"properties":{"level":"district","name":"门源回族自治县","name:zh":"门源回族自治县"},"id":1659578104696},{"type":"Feature","geometry":{"type":"Point","coordinates":[99.716996,38.312177]},"properties":{"level":"district","name":"祁连县","name:zh":"祁连县"},"id":1659578104697},{"type":"Feature","geometry":{"type":"Point","coordinates":[100.782199,37.079879]},"properties":{"level":"district","name":"海晏县","name:zh":"海晏县"},"id":1659578104697},{"type":"Feature","geometry":{"type":"Point","coordinates":[99.992465,37.472219]},"properties":{"level":"district","name":"刚察县","name:zh":"刚察县"},"id":1659578104697},{"type":"Feature","geometry":{"type":"Point","coordinates":[101.484693,34.782539]},"properties":{"level":"city","name":"黄南藏族自治州","name:zh":"黄南藏族自治州"},"id":1659578104698},{"type":"Feature","geometry":{"type":"Point","coordinates":[102.077646,35.422567]},"properties":{"level":"district","name":"同仁市","name:zh":"同仁市"},"id":1659578104698},{"type":"Feature","geometry":{"type":"Point","coordinates":[101.862621,35.903328]},"properties":{"level":"district","name":"尖扎县","name:zh":"尖扎县"},"id":1659578104699},{"type":"Feature","geometry":{"type":"Point","coordinates":[101.405752,35.100555]},"properties":{"level":"district","name":"泽库县","name:zh":"泽库县"},"id":1659578104699},{"type":"Feature","geometry":{"type":"Point","coordinates":[101.553129,34.505852]},"properties":{"level":"district","name":"河南蒙古族自治县","name:zh":"河南蒙古族自治县"},"id":1659578104700},{"type":"Feature","geometry":{"type":"Point","coordinates":[100.253142,35.908253]},"properties":{"level":"city","name":"海南藏族自治州","name:zh":"海南藏族自治州"},"id":1659578104700},{"type":"Feature","geometry":{"type":"Point","coordinates":[100.03371,36.464171]},"properties":{"level":"district","name":"共和县","name:zh":"共和县"},"id":1659578104700},{"type":"Feature","geometry":{"type":"Point","coordinates":[100.589629,35.074636]},"properties":{"level":"district","name":"同德县","name:zh":"同德县"},"id":1659578104701},{"type":"Feature","geometry":{"type":"Point","coordinates":[101.434323,35.999287]},"properties":{"level":"district","name":"贵德县","name:zh":"贵德县"},"id":1659578104701},{"type":"Feature","geometry":{"type":"Point","coordinates":[99.735748,35.527614]},"properties":{"level":"district","name":"兴海县","name:zh":"兴海县"},"id":1659578104701},{"type":"Feature","geometry":{"type":"Point","coordinates":[100.905862,35.700664]},"properties":{"level":"district","name":"贵南县","name:zh":"贵南县"},"id":1659578104702},{"type":"Feature","geometry":{"type":"Point","coordinates":[99.415532,34.124188]},"properties":{"level":"city","name":"果洛藏族自治州","name:zh":"果洛藏族自治州"},"id":1659578104703},{"type":"Feature","geometry":{"type":"Point","coordinates":[99.772877,34.510606]},"properties":{"level":"district","name":"玛沁县","name:zh":"玛沁县"},"id":1659578104703},{"type":"Feature","geometry":{"type":"Point","coordinates":[100.525409,32.929113]},"properties":{"level":"district","name":"班玛县","name:zh":"班玛县"},"id":1659578104704},{"type":"Feature","geometry":{"type":"Point","coordinates":[100.136034,34.022619]},"properties":{"level":"district","name":"甘德县","name:zh":"甘德县"},"id":1659578104704},{"type":"Feature","geometry":{"type":"Point","coordinates":[99.395019,33.482024]},"properties":{"level":"district","name":"达日县","name:zh":"达日县"},"id":1659578104705},{"type":"Feature","geometry":{"type":"Point","coordinates":[100.99907,33.485934]},"properties":{"level":"district","name":"久治县","name:zh":"久治县"},"id":1659578104705},{"type":"Feature","geometry":{"type":"Point","coordinates":[98.230464,34.811931]},"properties":{"level":"district","name":"玛多县","name:zh":"玛多县"},"id":1659578104706},{"type":"Feature","geometry":{"type":"Point","coordinates":[94.307972,34.231012]},"properties":{"level":"city","name":"玉树藏族自治州","name:zh":"玉树藏族自治州"},"id":1659578104706},{"type":"Feature","geometry":{"type":"Point","coordinates":[96.660011,32.914187]},"properties":{"level":"district","name":"玉树市","name:zh":"玉树市"},"id":1659578104707},{"type":"Feature","geometry":{"type":"Point","coordinates":[94.28247,33.060889]},"properties":{"level":"district","name":"杂多县","name:zh":"杂多县"},"id":1659578104707},{"type":"Feature","geometry":{"type":"Point","coordinates":[97.013299,33.918962]},"properties":{"level":"district","name":"称多县","name:zh":"称多县"},"id":1659578104708},{"type":"Feature","geometry":{"type":"Point","coordinates":[92.60308,34.879225]},"properties":{"level":"district","name":"治多县","name:zh":"治多县"},"id":1659578104708},{"type":"Feature","geometry":{"type":"Point","coordinates":[96.12882,32.169504]},"properties":{"level":"district","name":"囊谦县","name:zh":"囊谦县"},"id":1659578104709},{"type":"Feature","geometry":{"type":"Point","coordinates":[95.261073,34.953979]},"properties":{"level":"district","name":"曲麻莱县","name:zh":"曲麻莱县"},"id":1659578104709},{"type":"Feature","geometry":{"type":"Point","coordinates":[95.116879,37.239284]},"properties":{"level":"city","name":"海西蒙古族藏族自治州","name:zh":"海西蒙古族藏族自治州"},"id":1659578104710},{"type":"Feature","geometry":{"type":"Point","coordinates":[91.280151,33.901903]},"properties":{"level":"district","name":"格尔木市","name:zh":"格尔木市"},"id":1659578104710},{"type":"Feature","geometry":{"type":"Point","coordinates":[96.996105,37.723097]},"properties":{"level":"district","name":"德令哈市","name:zh":"德令哈市"},"id":1659578104711},{"type":"Feature","geometry":{"type":"Point","coordinates":[92.190396,38.182352]},"properties":{"level":"district","name":"茫崖市","name:zh":"茫崖市"},"id":1659578104711},{"type":"Feature","geometry":{"type":"Point","coordinates":[98.205794,36.808661]},"properties":{"level":"district","name":"乌兰县","name:zh":"乌兰县"},"id":1659578104711},{"type":"Feature","geometry":{"type":"Point","coordinates":[97.150277,36.177818]},"properties":{"level":"district","name":"都兰县","name:zh":"都兰县"},"id":1659578104712},{"type":"Feature","geometry":{"type":"Point","coordinates":[98.444748,38.055909]},"properties":{"level":"district","name":"天峻县","name:zh":"天峻县"},"id":1659578104712},{"type":"Feature","geometry":{"type":"Point","coordinates":[94.841849,37.865139]},"properties":{"level":"district","name":"海西蒙古族藏族自治州直辖","name:zh":"海西蒙古族藏族自治州直辖"},"id":1659578104713},{"type":"Feature","geometry":{"type":"Point","coordinates":[108.797426,34.10671]},"properties":{"level":"city","name":"西安市","name:zh":"西安市"},"id":1659578104713},{"type":"Feature","geometry":{"type":"Point","coordinates":[108.991696,34.271932]},"properties":{"level":"district","name":"新城区","name:zh":"新城区"},"id":1659578104713},{"type":"Feature","geometry":{"type":"Point","coordinates":[108.960946,34.246887]},"properties":{"level":"district","name":"碑林区","name:zh":"碑林区"},"id":1659578104714},{"type":"Feature","geometry":{"type":"Point","coordinates":[108.90115,34.270687]},"properties":{"level":"district","name":"莲湖区","name:zh":"莲湖区"},"id":1659578104714},{"type":"Feature","geometry":{"type":"Point","coordinates":[109.093723,34.303958]},"properties":{"level":"district","name":"灞桥区","name:zh":"灞桥区"},"id":1659578104714},{"type":"Feature","geometry":{"type":"Point","coordinates":[108.914984,34.343346]},"properties":{"level":"district","name":"未央区","name:zh":"未央区"},"id":1659578104714},{"type":"Feature","geometry":{"type":"Point","coordinates":[108.933051,34.210269]},"properties":{"level":"district","name":"雁塔区","name:zh":"雁塔区"},"id":1659578104715},{"type":"Feature","geometry":{"type":"Point","coordinates":[109.297704,34.658283]},"properties":{"level":"district","name":"阎良区","name:zh":"阎良区"},"id":1659578104715},{"type":"Feature","geometry":{"type":"Point","coordinates":[109.288094,34.456623]},"properties":{"level":"district","name":"临潼区","name:zh":"临潼区"},"id":1659578104715},{"type":"Feature","geometry":{"type":"Point","coordinates":[108.934679,34.035934]},"properties":{"level":"district","name":"长安区","name:zh":"长安区"},"id":1659578104716},{"type":"Feature","geometry":{"type":"Point","coordinates":[109.067167,34.508031]},"properties":{"level":"district","name":"高陵区","name:zh":"高陵区"},"id":1659578104716},{"type":"Feature","geometry":{"type":"Point","coordinates":[108.585644,33.997967]},"properties":{"level":"district","name":"鄠邑区","name:zh":"鄠邑区"},"id":1659578104716},{"type":"Feature","geometry":{"type":"Point","coordinates":[109.416922,34.094783]},"properties":{"level":"district","name":"蓝田县","name:zh":"蓝田县"},"id":1659578104717},{"type":"Feature","geometry":{"type":"Point","coordinates":[108.11396,33.949561]},"properties":{"level":"district","name":"周至县","name:zh":"周至县"},"id":1659578104717},{"type":"Feature","geometry":{"type":"Point","coordinates":[109.038368,35.195996]},"properties":{"level":"city","name":"铜川市","name:zh":"铜川市"},"id":1659578104718},{"type":"Feature","geometry":{"type":"Point","coordinates":[109.066745,35.049881]},"properties":{"level":"district","name":"王益区","name:zh":"王益区"},"id":1659578104718},{"type":"Feature","geometry":{"type":"Point","coordinates":[109.100814,35.111927]},"properties":{"level":"district","name":"印台区","name:zh":"印台区"},"id":1659578104721},{"type":"Feature","geometry":{"type":"Point","coordinates":[108.835923,35.052451]},"properties":{"level":"district","name":"耀州区","name:zh":"耀州区"},"id":1659578104722},{"type":"Feature","geometry":{"type":"Point","coordinates":[109.19798,35.378879]},"properties":{"level":"district","name":"宜君县","name:zh":"宜君县"},"id":1659578104722},{"type":"Feature","geometry":{"type":"Point","coordinates":[107.205191,34.380063]},"properties":{"level":"city","name":"宝鸡市","name:zh":"宝鸡市"},"id":1659578104723},{"type":"Feature","geometry":{"type":"Point","coordinates":[107.11158,34.282242]},"properties":{"level":"district","name":"渭滨区","name:zh":"渭滨区"},"id":1659578104723},{"type":"Feature","geometry":{"type":"Point","coordinates":[107.090134,34.434537]},"properties":{"level":"district","name":"金台区","name:zh":"金台区"},"id":1659578104724},{"type":"Feature","geometry":{"type":"Point","coordinates":[107.383645,34.352747]},"properties":{"level":"district","name":"陈仓区","name:zh":"陈仓区"},"id":1659578104724},{"type":"Feature","geometry":{"type":"Point","coordinates":[107.429834,34.571079]},"properties":{"level":"district","name":"凤翔区","name:zh":"凤翔区"},"id":1659578104725},{"type":"Feature","geometry":{"type":"Point","coordinates":[107.683743,34.405745]},"properties":{"level":"district","name":"岐山县","name:zh":"岐山县"},"id":1659578104725},{"type":"Feature","geometry":{"type":"Point","coordinates":[107.914747,34.41266]},"properties":{"level":"district","name":"扶风县","name:zh":"扶风县"},"id":1659578104725},{"type":"Feature","geometry":{"type":"Point","coordinates":[107.82612,34.144908]},"properties":{"level":"district","name":"眉县","name:zh":"眉县"},"id":1659578104726},{"type":"Feature","geometry":{"type":"Point","coordinates":[106.76859,34.870838]},"properties":{"level":"district","name":"陇县","name:zh":"陇县"},"id":1659578104726},{"type":"Feature","geometry":{"type":"Point","coordinates":[107.171852,34.76077]},"properties":{"level":"district","name":"千阳县","name:zh":"千阳县"},"id":1659578104727},{"type":"Feature","geometry":{"type":"Point","coordinates":[107.703788,34.779499]},"properties":{"level":"district","name":"麟游县","name:zh":"麟游县"},"id":1659578104727},{"type":"Feature","geometry":{"type":"Point","coordinates":[106.759566,33.987775]},"properties":{"level":"district","name":"凤县","name:zh":"凤县"},"id":1659578104727},{"type":"Feature","geometry":{"type":"Point","coordinates":[107.414568,33.933641]},"properties":{"level":"district","name":"太白县","name:zh":"太白县"},"id":1659578104728},{"type":"Feature","geometry":{"type":"Point","coordinates":[108.394642,34.785702]},"properties":{"level":"city","name":"咸阳市","name:zh":"咸阳市"},"id":1659578104728},{"type":"Feature","geometry":{"type":"Point","coordinates":[108.669386,34.355257]},"properties":{"level":"district","name":"秦都区","name:zh":"秦都区"},"id":1659578104728},{"type":"Feature","geometry":{"type":"Point","coordinates":[108.044282,34.274893]},"properties":{"level":"district","name":"杨陵区","name:zh":"杨陵区"},"id":1659578104729},{"type":"Feature","geometry":{"type":"Point","coordinates":[108.794955,34.418084]},"properties":{"level":"district","name":"渭城区","name:zh":"渭城区"},"id":1659578104729},{"type":"Feature","geometry":{"type":"Point","coordinates":[108.97373,34.697163]},"properties":{"level":"district","name":"三原县","name:zh":"三原县"},"id":1659578104730},{"type":"Feature","geometry":{"type":"Point","coordinates":[108.773246,34.603034]},"properties":{"level":"district","name":"泾阳县","name:zh":"泾阳县"},"id":1659578104730},{"type":"Feature","geometry":{"type":"Point","coordinates":[108.221928,34.522699]},"properties":{"level":"district","name":"乾县","name:zh":"乾县"},"id":1659578104731},{"type":"Feature","geometry":{"type":"Point","coordinates":[108.475122,34.591973]},"properties":{"level":"district","name":"礼泉县","name:zh":"礼泉县"},"id":1659578104731},{"type":"Feature","geometry":{"type":"Point","coordinates":[108.059772,34.571515]},"properties":{"level":"district","name":"永寿县","name:zh":"永寿县"},"id":1659578104731},{"type":"Feature","geometry":{"type":"Point","coordinates":[107.829612,35.163076]},"properties":{"level":"district","name":"长武县","name:zh":"长武县"},"id":1659578104732},{"type":"Feature","geometry":{"type":"Point","coordinates":[108.487689,35.210309]},"properties":{"level":"district","name":"旬邑县","name:zh":"旬邑县"},"id":1659578104732},{"type":"Feature","geometry":{"type":"Point","coordinates":[108.564423,34.863257]},"properties":{"level":"district","name":"淳化县","name:zh":"淳化县"},"id":1659578104733},{"type":"Feature","geometry":{"type":"Point","coordinates":[108.183939,34.310242]},"properties":{"level":"district","name":"武功县","name:zh":"武功县"},"id":1659578104733},{"type":"Feature","geometry":{"type":"Point","coordinates":[108.468921,34.301587]},"properties":{"level":"district","name":"兴平市","name:zh":"兴平市"},"id":1659578104733},{"type":"Feature","geometry":{"type":"Point","coordinates":[108.061708,35.045129]},"properties":{"level":"district","name":"彬州市","name:zh":"彬州市"},"id":1659578104734},{"type":"Feature","geometry":{"type":"Point","coordinates":[109.856208,34.950969]},"properties":{"level":"city","name":"渭南市","name:zh":"渭南市"},"id":1659578104734},{"type":"Feature","geometry":{"type":"Point","coordinates":[109.557917,34.548377]},"properties":{"level":"district","name":"临渭区","name:zh":"临渭区"},"id":1659578104734},{"type":"Feature","geometry":{"type":"Point","coordinates":[109.803444,34.406746]},"properties":{"level":"district","name":"华州区","name:zh":"华州区"},"id":1659578104735},{"type":"Feature","geometry":{"type":"Point","coordinates":[110.288104,34.502369]},"properties":{"level":"district","name":"潼关县","name:zh":"潼关县"},"id":1659578104735},{"type":"Feature","geometry":{"type":"Point","coordinates":[110.005565,34.792078]},"properties":{"level":"district","name":"大荔县","name:zh":"大荔县"},"id":1659578104735},{"type":"Feature","geometry":{"type":"Point","coordinates":[110.18589,35.201423]},"properties":{"level":"district","name":"合阳县","name:zh":"合阳县"},"id":1659578104735},{"type":"Feature","geometry":{"type":"Point","coordinates":[109.894763,35.216548]},"properties":{"level":"district","name":"澄城县","name:zh":"澄城县"},"id":1659578104736},{"type":"Feature","geometry":{"type":"Point","coordinates":[109.621416,34.961865]},"properties":{"level":"district","name":"蒲城县","name:zh":"蒲城县"},"id":1659578104736},{"type":"Feature","geometry":{"type":"Point","coordinates":[109.563626,35.265753]},"properties":{"level":"district","name":"白水县","name:zh":"白水县"},"id":1659578104737},{"type":"Feature","geometry":{"type":"Point","coordinates":[109.229152,34.873358]},"properties":{"level":"district","name":"富平县","name:zh":"富平县"},"id":1659578104737},{"type":"Feature","geometry":{"type":"Point","coordinates":[110.38647,35.574189]},"properties":{"level":"district","name":"韩城市","name:zh":"韩城市"},"id":1659578104737},{"type":"Feature","geometry":{"type":"Point","coordinates":[110.048018,34.522712]},"properties":{"level":"district","name":"华阴市","name:zh":"华阴市"},"id":1659578104737},{"type":"Feature","geometry":{"type":"Point","coordinates":[109.319393,36.442397]},"properties":{"level":"city","name":"延安市","name:zh":"延安市"},"id":1659578104738},{"type":"Feature","geometry":{"type":"Point","coordinates":[109.642834,36.571006]},"properties":{"level":"district","name":"宝塔区","name:zh":"宝塔区"},"id":1659578104738},{"type":"Feature","geometry":{"type":"Point","coordinates":[109.164305,36.920833]},"properties":{"level":"district","name":"安塞区","name:zh":"安塞区"},"id":1659578104739},{"type":"Feature","geometry":{"type":"Point","coordinates":[110.131082,36.537032]},"properties":{"level":"district","name":"延长县","name:zh":"延长县"},"id":1659578104739},{"type":"Feature","geometry":{"type":"Point","coordinates":[110.076908,36.876486]},"properties":{"level":"district","name":"延川县","name:zh":"延川县"},"id":1659578104739},{"type":"Feature","geometry":{"type":"Point","coordinates":[108.655732,36.746356]},"properties":{"level":"district","name":"志丹县","name:zh":"志丹县"},"id":1659578104740},{"type":"Feature","geometry":{"type":"Point","coordinates":[108.121599,36.979119]},"properties":{"level":"district","name":"吴起县","name:zh":"吴起县"},"id":1659578104740},{"type":"Feature","geometry":{"type":"Point","coordinates":[109.17879,36.347263]},"properties":{"level":"district","name":"甘泉县","name:zh":"甘泉县"},"id":1659578104740},{"type":"Feature","geometry":{"type":"Point","coordinates":[109.039085,36.015633]},"properties":{"level":"district","name":"富县","name:zh":"富县"},"id":1659578104741},{"type":"Feature","geometry":{"type":"Point","coordinates":[109.555491,35.738441]},"properties":{"level":"district","name":"洛川县","name:zh":"洛川县"},"id":1659578104741},{"type":"Feature","geometry":{"type":"Point","coordinates":[110.185479,36.064932]},"properties":{"level":"district","name":"宜川县","name:zh":"宜川县"},"id":1659578104742},{"type":"Feature","geometry":{"type":"Point","coordinates":[109.938098,35.696653]},"properties":{"level":"district","name":"黄龙县","name:zh":"黄龙县"},"id":1659578104742},{"type":"Feature","geometry":{"type":"Point","coordinates":[108.945565,35.6228]},"properties":{"level":"district","name":"黄陵县","name:zh":"黄陵县"},"id":1659578104742},{"type":"Feature","geometry":{"type":"Point","coordinates":[109.61502,37.225842]},"properties":{"level":"district","name":"子长市","name:zh":"子长市"},"id":1659578104743},{"type":"Feature","geometry":{"type":"Point","coordinates":[107.106739,33.090936]},"properties":{"level":"city","name":"汉中市","name:zh":"汉中市"},"id":1659578104743},{"type":"Feature","geometry":{"type":"Point","coordinates":[107.038163,33.183051]},"properties":{"level":"district","name":"汉台区","name:zh":"汉台区"},"id":1659578104744},{"type":"Feature","geometry":{"type":"Point","coordinates":[106.967343,32.805403]},"properties":{"level":"district","name":"南郑区","name:zh":"南郑区"},"id":1659578104744},{"type":"Feature","geometry":{"type":"Point","coordinates":[107.255361,33.218514]},"properties":{"level":"district","name":"城固县","name:zh":"城固县"},"id":1659578104744},{"type":"Feature","geometry":{"type":"Point","coordinates":[107.609844,33.362941]},"properties":{"level":"district","name":"洋县","name:zh":"洋县"},"id":1659578104745},{"type":"Feature","geometry":{"type":"Point","coordinates":[107.746461,32.887127]},"properties":{"level":"district","name":"西乡县","name:zh":"西乡县"},"id":1659578104745},{"type":"Feature","geometry":{"type":"Point","coordinates":[106.658007,33.238796]},"properties":{"level":"district","name":"勉县","name:zh":"勉县"},"id":1659578104745},{"type":"Feature","geometry":{"type":"Point","coordinates":[106.137049,32.906732]},"properties":{"level":"district","name":"宁强县","name:zh":"宁强县"},"id":1659578104746},{"type":"Feature","geometry":{"type":"Point","coordinates":[106.156482,33.377184]},"properties":{"level":"district","name":"略阳县","name:zh":"略阳县"},"id":1659578104746},{"type":"Feature","geometry":{"type":"Point","coordinates":[107.877299,32.509853]},"properties":{"level":"district","name":"镇巴县","name:zh":"镇巴县"},"id":1659578104747},{"type":"Feature","geometry":{"type":"Point","coordinates":[106.955828,33.608009]},"properties":{"level":"district","name":"留坝县","name:zh":"留坝县"},"id":1659578104747},{"type":"Feature","geometry":{"type":"Point","coordinates":[107.923214,33.542377]},"properties":{"level":"district","name":"佛坪县","name:zh":"佛坪县"},"id":1659578104747},{"type":"Feature","geometry":{"type":"Point","coordinates":[109.577105,38.048207]},"properties":{"level":"city","name":"榆林市","name:zh":"榆林市"},"id":1659578104748},{"type":"Feature","geometry":{"type":"Point","coordinates":[109.642473,38.383961]},"properties":{"level":"district","name":"榆阳区","name:zh":"榆阳区"},"id":1659578104748},{"type":"Feature","geometry":{"type":"Point","coordinates":[109.456641,37.850132]},"properties":{"level":"district","name":"横山区","name:zh":"横山区"},"id":1659578104749},{"type":"Feature","geometry":{"type":"Point","coordinates":[110.861477,39.181952]},"properties":{"level":"district","name":"府谷县","name:zh":"府谷县"},"id":1659578104749},{"type":"Feature","geometry":{"type":"Point","coordinates":[108.806018,37.479373]},"properties":{"level":"district","name":"靖边县","name:zh":"靖边县"},"id":1659578104749},{"type":"Feature","geometry":{"type":"Point","coordinates":[107.748484,37.379534]},"properties":{"level":"district","name":"定边县","name:zh":"定边县"},"id":1659578104750},{"type":"Feature","geometry":{"type":"Point","coordinates":[110.389683,37.514116]},"properties":{"level":"district","name":"绥德县","name:zh":"绥德县"},"id":1659578104750},{"type":"Feature","geometry":{"type":"Point","coordinates":[110.179548,37.822259]},"properties":{"level":"district","name":"米脂县","name:zh":"米脂县"},"id":1659578104751},{"type":"Feature","geometry":{"type":"Point","coordinates":[110.367442,38.07194]},"properties":{"level":"district","name":"佳县","name:zh":"佳县"},"id":1659578104751},{"type":"Feature","geometry":{"type":"Point","coordinates":[110.685475,37.588785]},"properties":{"level":"district","name":"吴堡县","name:zh":"吴堡县"},"id":1659578104751},{"type":"Feature","geometry":{"type":"Point","coordinates":[110.282097,37.180796]},"properties":{"level":"district","name":"清涧县","name:zh":"清涧县"},"id":1659578104751},{"type":"Feature","geometry":{"type":"Point","coordinates":[109.870572,37.527631]},"properties":{"level":"district","name":"子洲县","name:zh":"子洲县"},"id":1659578104752},{"type":"Feature","geometry":{"type":"Point","coordinates":[110.326696,38.822458]},"properties":{"level":"district","name":"神木市","name:zh":"神木市"},"id":1659578104752},{"type":"Feature","geometry":{"type":"Point","coordinates":[108.929995,32.759384]},"properties":{"level":"city","name":"安康市","name:zh":"安康市"},"id":1659578104753},{"type":"Feature","geometry":{"type":"Point","coordinates":[108.888757,32.813049]},"properties":{"level":"district","name":"汉滨区","name:zh":"汉滨区"},"id":1659578104753},{"type":"Feature","geometry":{"type":"Point","coordinates":[108.488035,32.897453]},"properties":{"level":"district","name":"汉阴县","name:zh":"汉阴县"},"id":1659578104753},{"type":"Feature","geometry":{"type":"Point","coordinates":[108.242433,33.059242]},"properties":{"level":"district","name":"石泉县","name:zh":"石泉县"},"id":1659578104754},{"type":"Feature","geometry":{"type":"Point","coordinates":[108.445414,33.531115]},"properties":{"level":"district","name":"宁陕县","name:zh":"宁陕县"},"id":1659578104754},{"type":"Feature","geometry":{"type":"Point","coordinates":[108.438364,32.44357]},"properties":{"level":"district","name":"紫阳县","name:zh":"紫阳县"},"id":1659578104754},{"type":"Feature","geometry":{"type":"Point","coordinates":[108.87855,32.241271]},"properties":{"level":"district","name":"岚皋县","name:zh":"岚皋县"},"id":1659578104755},{"type":"Feature","geometry":{"type":"Point","coordinates":[109.26415,32.286608]},"properties":{"level":"district","name":"平利县","name:zh":"平利县"},"id":1659578104755},{"type":"Feature","geometry":{"type":"Point","coordinates":[109.45026,31.934629]},"properties":{"level":"district","name":"镇坪县","name:zh":"镇坪县"},"id":1659578104755},{"type":"Feature","geometry":{"type":"Point","coordinates":[109.415321,32.898614]},"properties":{"level":"district","name":"旬阳市","name:zh":"旬阳市"},"id":1659578104756},{"type":"Feature","geometry":{"type":"Point","coordinates":[109.91201,32.724972]},"properties":{"level":"district","name":"白河县","name:zh":"白河县"},"id":1659578104756},{"type":"Feature","geometry":{"type":"Point","coordinates":[109.907166,33.647601]},"properties":{"level":"city","name":"商洛市","name:zh":"商洛市"},"id":1659578104757},{"type":"Feature","geometry":{"type":"Point","coordinates":[109.866835,33.890504]},"properties":{"level":"district","name":"商州区","name:zh":"商州区"},"id":1659578104757},{"type":"Feature","geometry":{"type":"Point","coordinates":[110.267177,34.159882]},"properties":{"level":"district","name":"洛南县","name:zh":"洛南县"},"id":1659578104757},{"type":"Feature","geometry":{"type":"Point","coordinates":[110.436033,33.679413]},"properties":{"level":"district","name":"丹凤县","name:zh":"丹凤县"},"id":1659578104758},{"type":"Feature","geometry":{"type":"Point","coordinates":[110.757755,33.406258]},"properties":{"level":"district","name":"商南县","name:zh":"商南县"},"id":1659578104758},{"type":"Feature","geometry":{"type":"Point","coordinates":[109.973263,33.421223]},"properties":{"level":"district","name":"山阳县","name:zh":"山阳县"},"id":1659578104759},{"type":"Feature","geometry":{"type":"Point","coordinates":[109.068061,33.376125]},"properties":{"level":"district","name":"镇安县","name:zh":"镇安县"},"id":1659578104759},{"type":"Feature","geometry":{"type":"Point","coordinates":[109.274189,33.688305]},"properties":{"level":"district","name":"柞水县","name:zh":"柞水县"},"id":1659578104759},{"type":"Feature","geometry":{"type":"Point","coordinates":[108.406819,30.704054]},"properties":{"level":"district","name":"万州区","name:zh":"万州区"},"id":1659578104760},{"type":"Feature","geometry":{"type":"Point","coordinates":[107.334026,29.658582]},"properties":{"level":"district","name":"涪陵区","name:zh":"涪陵区"},"id":1659578104761},{"type":"Feature","geometry":{"type":"Point","coordinates":[106.540387,29.549305]},"properties":{"level":"district","name":"渝中区","name:zh":"渝中区"},"id":1659578104761},{"type":"Feature","geometry":{"type":"Point","coordinates":[106.458637,29.417574]},"properties":{"level":"district","name":"大渡口区","name:zh":"大渡口区"},"id":1659578104761},{"type":"Feature","geometry":{"type":"Point","coordinates":[106.707043,29.613282]},"properties":{"level":"district","name":"江北区","name:zh":"江北区"},"id":1659578104762},{"type":"Feature","geometry":{"type":"Point","coordinates":[106.368248,29.624462]},"properties":{"level":"district","name":"沙坪坝区","name:zh":"沙坪坝区"},"id":1659578104762},{"type":"Feature","geometry":{"type":"Point","coordinates":[106.364401,29.428501]},"properties":{"level":"district","name":"九龙坡区","name:zh":"九龙坡区"},"id":1659578104765},{"type":"Feature","geometry":{"type":"Point","coordinates":[106.660614,29.535521]},"properties":{"level":"district","name":"南岸区","name:zh":"南岸区"},"id":1659578104766},{"type":"Feature","geometry":{"type":"Point","coordinates":[106.513996,29.861006]},"properties":{"level":"district","name":"北碚区","name:zh":"北碚区"},"id":1659578104766},{"type":"Feature","geometry":{"type":"Point","coordinates":[106.722706,28.87864]},"properties":{"level":"district","name":"綦江区","name:zh":"綦江区"},"id":1659578104767},{"type":"Feature","geometry":{"type":"Point","coordinates":[105.742721,29.65]},"properties":{"level":"district","name":"大足区","name:zh":"大足区"},"id":1659578104767},{"type":"Feature","geometry":{"type":"Point","coordinates":[106.746928,29.810209]},"properties":{"level":"district","name":"渝北区","name:zh":"渝北区"},"id":1659578104768},{"type":"Feature","geometry":{"type":"Point","coordinates":[106.751731,29.371851]},"properties":{"level":"district","name":"巴南区","name:zh":"巴南区"},"id":1659578104768},{"type":"Feature","geometry":{"type":"Point","coordinates":[108.708597,29.435532]},"properties":{"level":"district","name":"黔江区","name:zh":"黔江区"},"id":1659578104769},{"type":"Feature","geometry":{"type":"Point","coordinates":[107.140018,29.954649]},"properties":{"level":"district","name":"长寿区","name:zh":"长寿区"},"id":1659578104769},{"type":"Feature","geometry":{"type":"Point","coordinates":[106.263211,29.029608]},"properties":{"level":"district","name":"江津区","name:zh":"江津区"},"id":1659578104770},{"type":"Feature","geometry":{"type":"Point","coordinates":[106.311538,30.112474]},"properties":{"level":"district","name":"合川区","name:zh":"合川区"},"id":1659578104770},{"type":"Feature","geometry":{"type":"Point","coordinates":[105.872859,29.290183]},"properties":{"level":"district","name":"永川区","name:zh":"永川区"},"id":1659578104771},{"type":"Feature","geometry":{"type":"Point","coordinates":[107.171436,29.13547]},"properties":{"level":"district","name":"南川区","name:zh":"南川区"},"id":1659578104771},{"type":"Feature","geometry":{"type":"Point","coordinates":[106.191948,29.561371]},"properties":{"level":"district","name":"璧山区","name:zh":"璧山区"},"id":1659578104771},{"type":"Feature","geometry":{"type":"Point","coordinates":[106.0332,29.81109]},"properties":{"level":"district","name":"铜梁区","name:zh":"铜梁区"},"id":1659578104772},{"type":"Feature","geometry":{"type":"Point","coordinates":[105.814632,30.143351]},"properties":{"level":"district","name":"潼南区","name:zh":"潼南区"},"id":1659578104772},{"type":"Feature","geometry":{"type":"Point","coordinates":[105.506727,29.464817]},"properties":{"level":"district","name":"荣昌区","name:zh":"荣昌区"},"id":1659578104773},{"type":"Feature","geometry":{"type":"Point","coordinates":[108.382659,31.271013]},"properties":{"level":"district","name":"开州区","name:zh":"开州区"},"id":1659578104773},{"type":"Feature","geometry":{"type":"Point","coordinates":[107.719234,30.658344]},"properties":{"level":"district","name":"梁平区","name:zh":"梁平区"},"id":1659578104774},{"type":"Feature","geometry":{"type":"Point","coordinates":[107.709628,29.373158]},"properties":{"level":"district","name":"武隆区","name:zh":"武隆区"},"id":1659578104774},{"type":"Feature","geometry":{"type":"Point","coordinates":[108.735105,31.881846]},"properties":{"level":"district","name":"城口县","name:zh":"城口县"},"id":1659578104775},{"type":"Feature","geometry":{"type":"Point","coordinates":[107.830885,29.884753]},"properties":{"level":"district","name":"丰都县","name:zh":"丰都县"},"id":1659578104775},{"type":"Feature","geometry":{"type":"Point","coordinates":[107.437814,30.253308]},"properties":{"level":"district","name":"垫江县","name:zh":"垫江县"},"id":1659578104776},{"type":"Feature","geometry":{"type":"Point","coordinates":[107.914786,30.335722]},"properties":{"level":"district","name":"忠县","name:zh":"忠县"},"id":1659578104776},{"type":"Feature","geometry":{"type":"Point","coordinates":[108.856912,31.036349]},"properties":{"level":"district","name":"云阳县","name:zh":"云阳县"},"id":1659578104777},{"type":"Feature","geometry":{"type":"Point","coordinates":[109.349632,30.952293]},"properties":{"level":"district","name":"奉节县","name:zh":"奉节县"},"id":1659578104777},{"type":"Feature","geometry":{"type":"Point","coordinates":[109.901246,31.115189]},"properties":{"level":"district","name":"巫山县","name:zh":"巫山县"},"id":1659578104778},{"type":"Feature","geometry":{"type":"Point","coordinates":[109.35337,31.503107]},"properties":{"level":"district","name":"巫溪县","name:zh":"巫溪县"},"id":1659578104778},{"type":"Feature","geometry":{"type":"Point","coordinates":[108.298494,30.093676]},"properties":{"level":"district","name":"石柱土家族自治县","name:zh":"石柱土家族自治县"},"id":1659578104779},{"type":"Feature","geometry":{"type":"Point","coordinates":[109.018121,28.491722]},"properties":{"level":"district","name":"秀山土家族苗族自治县","name:zh":"秀山土家族苗族自治县"},"id":1659578104779},{"type":"Feature","geometry":{"type":"Point","coordinates":[108.800321,28.89987]},"properties":{"level":"district","name":"酉阳土家族苗族自治县","name:zh":"酉阳土家族苗族自治县"},"id":1659578104780},{"type":"Feature","geometry":{"type":"Point","coordinates":[108.266309,29.353956]},"properties":{"level":"district","name":"彭水苗族土家族自治县","name:zh":"彭水苗族土家族自治县"},"id":1659578104780},{"type":"Feature","geometry":{"type":"Point","coordinates":[123.143796,42.100641]},"properties":{"level":"city","name":"沈阳市","name:zh":"沈阳市"},"id":1659578104781},{"type":"Feature","geometry":{"type":"Point","coordinates":[123.389006,41.746003]},"properties":{"level":"district","name":"和平区","name:zh":"和平区"},"id":1659578104781},{"type":"Feature","geometry":{"type":"Point","coordinates":[123.445696,41.795591]},"properties":{"level":"district","name":"沈河区","name:zh":"沈河区"},"id":1659578104781},{"type":"Feature","geometry":{"type":"Point","coordinates":[123.512129,41.861227]},"properties":{"level":"district","name":"大东区","name:zh":"大东区"},"id":1659578104781},{"type":"Feature","geometry":{"type":"Point","coordinates":[123.425618,41.85951]},"properties":{"level":"district","name":"皇姑区","name:zh":"皇姑区"},"id":1659578104782},{"type":"Feature","geometry":{"type":"Point","coordinates":[123.119361,41.673501]},"properties":{"level":"district","name":"铁西区","name:zh":"铁西区"},"id":1659578104782},{"type":"Feature","geometry":{"type":"Point","coordinates":[123.418969,41.583169]},"properties":{"level":"district","name":"苏家屯区","name:zh":"苏家屯区"},"id":1659578104783},{"type":"Feature","geometry":{"type":"Point","coordinates":[123.627317,41.764818]},"properties":{"level":"district","name":"浑南区","name:zh":"浑南区"},"id":1659578104783},{"type":"Feature","geometry":{"type":"Point","coordinates":[123.496836,42.035269]},"properties":{"level":"district","name":"沈北新区","name:zh":"沈北新区"},"id":1659578104784},{"type":"Feature","geometry":{"type":"Point","coordinates":[123.253673,41.906113]},"properties":{"level":"district","name":"于洪区","name:zh":"于洪区"},"id":1659578104784},{"type":"Feature","geometry":{"type":"Point","coordinates":[122.744639,41.553183]},"properties":{"level":"district","name":"辽中区","name:zh":"辽中区"},"id":1659578104785},{"type":"Feature","geometry":{"type":"Point","coordinates":[123.267489,42.759025]},"properties":{"level":"district","name":"康平县","name:zh":"康平县"},"id":1659578104785},{"type":"Feature","geometry":{"type":"Point","coordinates":[123.239321,42.408583]},"properties":{"level":"district","name":"法库县","name:zh":"法库县"},"id":1659578104786},{"type":"Feature","geometry":{"type":"Point","coordinates":[122.857957,42.009602]},"properties":{"level":"district","name":"新民市","name:zh":"新民市"},"id":1659578104786},{"type":"Feature","geometry":{"type":"Point","coordinates":[122.190893,39.593378]},"properties":{"level":"city","name":"大连市","name:zh":"大连市"},"id":1659578104787},{"type":"Feature","geometry":{"type":"Point","coordinates":[121.67331,38.900125]},"properties":{"level":"district","name":"中山区","name:zh":"中山区"},"id":1659578104788},{"type":"Feature","geometry":{"type":"Point","coordinates":[121.620142,38.910058]},"properties":{"level":"district","name":"西岗区","name:zh":"西岗区"},"id":1659578104788},{"type":"Feature","geometry":{"type":"Point","coordinates":[121.57005,38.905634]},"properties":{"level":"district","name":"沙河口区","name:zh":"沙河口区"},"id":1659578104788},{"type":"Feature","geometry":{"type":"Point","coordinates":[121.518531,38.985425]},"properties":{"level":"district","name":"甘井子区","name:zh":"甘井子区"},"id":1659578104789},{"type":"Feature","geometry":{"type":"Point","coordinates":[121.2525,38.857425]},"properties":{"level":"district","name":"旅顺口区","name:zh":"旅顺口区"},"id":1659578104789},{"type":"Feature","geometry":{"type":"Point","coordinates":[121.853889,39.249258]},"properties":{"level":"district","name":"金州区","name:zh":"金州区"},"id":1659578104790},{"type":"Feature","geometry":{"type":"Point","coordinates":[122.287652,39.605827]},"properties":{"level":"district","name":"普兰店区","name:zh":"普兰店区"},"id":1659578104790},{"type":"Feature","geometry":{"type":"Point","coordinates":[122.588968,39.280032]},"properties":{"level":"district","name":"长海县","name:zh":"长海县"},"id":1659578104791},{"type":"Feature","geometry":{"type":"Point","coordinates":[121.775003,39.706598]},"properties":{"level":"district","name":"瓦房店市","name:zh":"瓦房店市"},"id":1659578104791},{"type":"Feature","geometry":{"type":"Point","coordinates":[122.935203,39.843348]},"properties":{"level":"district","name":"庄河市","name:zh":"庄河市"},"id":1659578104792},{"type":"Feature","geometry":{"type":"Point","coordinates":[123.016394,40.718251]},"properties":{"level":"city","name":"鞍山市","name:zh":"鞍山市"},"id":1659578104792},{"type":"Feature","geometry":{"type":"Point","coordinates":[123.081284,41.046333]},"properties":{"level":"district","name":"铁东区","name:zh":"铁东区"},"id":1659578104793},{"type":"Feature","geometry":{"type":"Point","coordinates":[122.928418,41.132878]},"properties":{"level":"district","name":"铁西区","name:zh":"铁西区"},"id":1659578104793},{"type":"Feature","geometry":{"type":"Point","coordinates":[123.102113,41.121623]},"properties":{"level":"district","name":"立山区","name:zh":"立山区"},"id":1659578104794},{"type":"Feature","geometry":{"type":"Point","coordinates":[122.946713,40.985217]},"properties":{"level":"district","name":"千山区","name:zh":"千山区"},"id":1659578104794},{"type":"Feature","geometry":{"type":"Point","coordinates":[122.437855,41.341289]},"properties":{"level":"district","name":"台安县","name:zh":"台安县"},"id":1659578104795},{"type":"Feature","geometry":{"type":"Point","coordinates":[123.339578,40.397343]},"properties":{"level":"district","name":"岫岩满族自治县","name:zh":"岫岩满族自治县"},"id":1659578104795},{"type":"Feature","geometry":{"type":"Point","coordinates":[122.778304,40.824679]},"properties":{"level":"district","name":"海城市","name:zh":"海城市"},"id":1659578104796},{"type":"Feature","geometry":{"type":"Point","coordinates":[124.662356,41.837685]},"properties":{"level":"city","name":"抚顺市","name:zh":"抚顺市"},"id":1659578104796},{"type":"Feature","geometry":{"type":"Point","coordinates":[123.936695,41.812256]},"properties":{"level":"district","name":"新抚区","name:zh":"新抚区"},"id":1659578104796},{"type":"Feature","geometry":{"type":"Point","coordinates":[124.147814,41.934137]},"properties":{"level":"district","name":"东洲区","name:zh":"东洲区"},"id":1659578104797},{"type":"Feature","geometry":{"type":"Point","coordinates":[123.797866,41.787842]},"properties":{"level":"district","name":"望花区","name:zh":"望花区"},"id":1659578104797},{"type":"Feature","geometry":{"type":"Point","coordinates":[123.907888,41.942006]},"properties":{"level":"district","name":"顺城区","name:zh":"顺城区"},"id":1659578104798},{"type":"Feature","geometry":{"type":"Point","coordinates":[124.166387,41.676258]},"properties":{"level":"district","name":"抚顺县","name:zh":"抚顺县"},"id":1659578104798},{"type":"Feature","geometry":{"type":"Point","coordinates":[124.835007,41.625651]},"properties":{"level":"district","name":"新宾满族自治县","name:zh":"新宾满族自治县"},"id":1659578104798},{"type":"Feature","geometry":{"type":"Point","coordinates":[124.918471,42.11327]},"properties":{"level":"district","name":"清原满族自治县","name:zh":"清原满族自治县"},"id":1659578104799},{"type":"Feature","geometry":{"type":"Point","coordinates":[124.574237,41.231499]},"properties":{"level":"city","name":"本溪市","name:zh":"本溪市"},"id":1659578104803},{"type":"Feature","geometry":{"type":"Point","coordinates":[123.701385,41.220824]},"properties":{"level":"district","name":"平山区","name:zh":"平山区"},"id":1659578104804},{"type":"Feature","geometry":{"type":"Point","coordinates":[123.714735,41.423883]},"properties":{"level":"district","name":"溪湖区","name:zh":"溪湖区"},"id":1659578104804},{"type":"Feature","geometry":{"type":"Point","coordinates":[123.873953,41.325174]},"properties":{"level":"district","name":"明山区","name:zh":"明山区"},"id":1659578104805},{"type":"Feature","geometry":{"type":"Point","coordinates":[123.822976,41.096872]},"properties":{"level":"district","name":"南芬区","name:zh":"南芬区"},"id":1659578104805},{"type":"Feature","geometry":{"type":"Point","coordinates":[124.171395,41.200551]},"properties":{"level":"district","name":"本溪满族自治县","name:zh":"本溪满族自治县"},"id":1659578104806},{"type":"Feature","geometry":{"type":"Point","coordinates":[125.281957,41.256209]},"properties":{"level":"district","name":"桓仁满族自治县","name:zh":"桓仁满族自治县"},"id":1659578104806},{"type":"Feature","geometry":{"type":"Point","coordinates":[124.40518,40.544775]},"properties":{"level":"city","name":"丹东市","name:zh":"丹东市"},"id":1659578104807},{"type":"Feature","geometry":{"type":"Point","coordinates":[124.323638,40.178832]},"properties":{"level":"district","name":"元宝区","name:zh":"元宝区"},"id":1659578104807},{"type":"Feature","geometry":{"type":"Point","coordinates":[124.292666,40.049622]},"properties":{"level":"district","name":"振兴区","name:zh":"振兴区"},"id":1659578104807},{"type":"Feature","geometry":{"type":"Point","coordinates":[124.29086,40.241859]},"properties":{"level":"district","name":"振安区","name:zh":"振安区"},"id":1659578104808},{"type":"Feature","geometry":{"type":"Point","coordinates":[124.925347,40.763806]},"properties":{"level":"district","name":"宽甸满族自治县","name:zh":"宽甸满族自治县"},"id":1659578104808},{"type":"Feature","geometry":{"type":"Point","coordinates":[123.848319,39.962615]},"properties":{"level":"district","name":"东港市","name:zh":"东港市"},"id":1659578104809},{"type":"Feature","geometry":{"type":"Point","coordinates":[124.059326,40.583747]},"properties":{"level":"district","name":"凤城市","name:zh":"凤城市"},"id":1659578104809},{"type":"Feature","geometry":{"type":"Point","coordinates":[121.618541,41.461822]},"properties":{"level":"city","name":"锦州市","name:zh":"锦州市"},"id":1659578104810},{"type":"Feature","geometry":{"type":"Point","coordinates":[121.078614,41.153672]},"properties":{"level":"district","name":"古塔区","name:zh":"古塔区"},"id":1659578104810},{"type":"Feature","geometry":{"type":"Point","coordinates":[121.18047,41.127212]},"properties":{"level":"district","name":"凌河区","name:zh":"凌河区"},"id":1659578104810},{"type":"Feature","geometry":{"type":"Point","coordinates":[121.160594,40.980422]},"properties":{"level":"district","name":"太和区","name:zh":"太和区"},"id":1659578104811},{"type":"Feature","geometry":{"type":"Point","coordinates":[122.252937,41.792332]},"properties":{"level":"district","name":"黑山县","name:zh":"黑山县"},"id":1659578104811},{"type":"Feature","geometry":{"type":"Point","coordinates":[121.297017,41.530803]},"properties":{"level":"district","name":"义县","name:zh":"义县"},"id":1659578104811},{"type":"Feature","geometry":{"type":"Point","coordinates":[121.306448,41.170048]},"properties":{"level":"district","name":"凌海市","name:zh":"凌海市"},"id":1659578104812},{"type":"Feature","geometry":{"type":"Point","coordinates":[121.857306,41.540448]},"properties":{"level":"district","name":"北镇市","name:zh":"北镇市"},"id":1659578104812},{"type":"Feature","geometry":{"type":"Point","coordinates":[122.456202,40.391795]},"properties":{"level":"city","name":"营口市","name:zh":"营口市"},"id":1659578104813},{"type":"Feature","geometry":{"type":"Point","coordinates":[122.253235,40.669949]},"properties":{"level":"district","name":"站前区","name:zh":"站前区"},"id":1659578104813},{"type":"Feature","geometry":{"type":"Point","coordinates":[122.248293,40.584713]},"properties":{"level":"district","name":"西市区","name:zh":"西市区"},"id":1659578104813},{"type":"Feature","geometry":{"type":"Point","coordinates":[122.161166,40.266719]},"properties":{"level":"district","name":"鲅鱼圈区","name:zh":"鲅鱼圈区"},"id":1659578104814},{"type":"Feature","geometry":{"type":"Point","coordinates":[122.382584,40.682723]},"properties":{"level":"district","name":"老边区","name:zh":"老边区"},"id":1659578104814},{"type":"Feature","geometry":{"type":"Point","coordinates":[122.462024,40.229034]},"properties":{"level":"district","name":"盖州市","name:zh":"盖州市"},"id":1659578104814},{"type":"Feature","geometry":{"type":"Point","coordinates":[122.563913,40.641117]},"properties":{"level":"district","name":"大石桥市","name:zh":"大石桥市"},"id":1659578104815},{"type":"Feature","geometry":{"type":"Point","coordinates":[121.961888,42.282968]},"properties":{"level":"city","name":"阜新市","name:zh":"阜新市"},"id":1659578104815},{"type":"Feature","geometry":{"type":"Point","coordinates":[121.632991,41.957146]},"properties":{"level":"district","name":"海州区","name:zh":"海州区"},"id":1659578104816},{"type":"Feature","geometry":{"type":"Point","coordinates":[121.824192,42.057526]},"properties":{"level":"district","name":"新邱区","name:zh":"新邱区"},"id":1659578104816},{"type":"Feature","geometry":{"type":"Point","coordinates":[121.733328,41.994633]},"properties":{"level":"district","name":"太平区","name:zh":"太平区"},"id":1659578104816},{"type":"Feature","geometry":{"type":"Point","coordinates":[121.435799,41.752757]},"properties":{"level":"district","name":"清河门区","name:zh":"清河门区"},"id":1659578104816},{"type":"Feature","geometry":{"type":"Point","coordinates":[121.620004,42.036291]},"properties":{"level":"district","name":"细河区","name:zh":"细河区"},"id":1659578104817},{"type":"Feature","geometry":{"type":"Point","coordinates":[121.453452,42.11807]},"properties":{"level":"district","name":"阜新蒙古族自治县","name:zh":"阜新蒙古族自治县"},"id":1659578104817},{"type":"Feature","geometry":{"type":"Point","coordinates":[122.466431,42.51892]},"properties":{"level":"district","name":"彰武县","name:zh":"彰武县"},"id":1659578104818},{"type":"Feature","geometry":{"type":"Point","coordinates":[123.251133,41.184819]},"properties":{"level":"city","name":"辽阳市","name:zh":"辽阳市"},"id":1659578104818},{"type":"Feature","geometry":{"type":"Point","coordinates":[123.182426,41.261464]},"properties":{"level":"district","name":"白塔区","name:zh":"白塔区"},"id":1659578104819},{"type":"Feature","geometry":{"type":"Point","coordinates":[123.33924,41.282102]},"properties":{"level":"district","name":"文圣区","name:zh":"文圣区"},"id":1659578104819},{"type":"Feature","geometry":{"type":"Point","coordinates":[123.22556,41.184658]},"properties":{"level":"district","name":"宏伟区","name:zh":"宏伟区"},"id":1659578104819},{"type":"Feature","geometry":{"type":"Point","coordinates":[123.417953,41.149535]},"properties":{"level":"district","name":"弓长岭区","name:zh":"弓长岭区"},"id":1659578104820},{"type":"Feature","geometry":{"type":"Point","coordinates":[123.088382,41.320797]},"properties":{"level":"district","name":"太子河区","name:zh":"太子河区"},"id":1659578104820},{"type":"Feature","geometry":{"type":"Point","coordinates":[123.374347,40.953088]},"properties":{"level":"district","name":"辽阳县","name:zh":"辽阳县"},"id":1659578104820},{"type":"Feature","geometry":{"type":"Point","coordinates":[123.319601,41.421551]},"properties":{"level":"district","name":"灯塔市","name:zh":"灯塔市"},"id":1659578104821},{"type":"Feature","geometry":{"type":"Point","coordinates":[121.999309,41.06851]},"properties":{"level":"city","name":"盘锦市","name:zh":"盘锦市"},"id":1659578104821},{"type":"Feature","geometry":{"type":"Point","coordinates":[122.013935,41.195083]},"properties":{"level":"district","name":"双台子区","name:zh":"双台子区"},"id":1659578104821},{"type":"Feature","geometry":{"type":"Point","coordinates":[122.022469,41.14611]},"properties":{"level":"district","name":"兴隆台区","name:zh":"兴隆台区"},"id":1659578104822},{"type":"Feature","geometry":{"type":"Point","coordinates":[122.05242,40.913075]},"properties":{"level":"district","name":"大洼区","name:zh":"大洼区"},"id":1659578104822},{"type":"Feature","geometry":{"type":"Point","coordinates":[121.98528,41.240701]},"properties":{"level":"district","name":"盘山县","name:zh":"盘山县"},"id":1659578104823},{"type":"Feature","geometry":{"type":"Point","coordinates":[124.176584,42.648938]},"properties":{"level":"city","name":"铁岭市","name:zh":"铁岭市"},"id":1659578104823},{"type":"Feature","geometry":{"type":"Point","coordinates":[123.851466,42.247882]},"properties":{"level":"district","name":"银州区","name:zh":"银州区"},"id":1659578104823},{"type":"Feature","geometry":{"type":"Point","coordinates":[124.271326,42.520352]},"properties":{"level":"district","name":"清河区","name:zh":"清河区"},"id":1659578104824},{"type":"Feature","geometry":{"type":"Point","coordinates":[123.703548,42.266194]},"properties":{"level":"district","name":"铁岭县","name:zh":"铁岭县"},"id":1659578104824},{"type":"Feature","geometry":{"type":"Point","coordinates":[124.73206,42.706707]},"properties":{"level":"district","name":"西丰县","name:zh":"西丰县"},"id":1659578104825},{"type":"Feature","geometry":{"type":"Point","coordinates":[123.9393,42.994205]},"properties":{"level":"district","name":"昌图县","name:zh":"昌图县"},"id":1659578104825},{"type":"Feature","geometry":{"type":"Point","coordinates":[123.581029,42.434001]},"properties":{"level":"district","name":"调兵山市","name:zh":"调兵山市"},"id":1659578104826},{"type":"Feature","geometry":{"type":"Point","coordinates":[124.045551,42.542141]},"properties":{"level":"district","name":"开原市","name:zh":"开原市"},"id":1659578104826},{"type":"Feature","geometry":{"type":"Point","coordinates":[120.021858,41.516568]},"properties":{"level":"city","name":"朝阳市","name:zh":"朝阳市"},"id":1659578104826},{"type":"Feature","geometry":{"type":"Point","coordinates":[120.537954,41.580173]},"properties":{"level":"district","name":"双塔区","name:zh":"双塔区"},"id":1659578104827},{"type":"Feature","geometry":{"type":"Point","coordinates":[120.287688,41.562535]},"properties":{"level":"district","name":"龙城区","name:zh":"龙城区"},"id":1659578104827},{"type":"Feature","geometry":{"type":"Point","coordinates":[120.292061,41.352249]},"properties":{"level":"district","name":"朝阳县","name:zh":"朝阳县"},"id":1659578104827},{"type":"Feature","geometry":{"type":"Point","coordinates":[119.625367,41.837961]},"properties":{"level":"district","name":"建平县","name:zh":"建平县"},"id":1659578104828},{"type":"Feature","geometry":{"type":"Point","coordinates":[119.768641,41.138049]},"properties":{"level":"district","name":"喀喇沁左翼蒙古族自治县","name:zh":"喀喇沁左翼蒙古族自治县"},"id":1659578104828},{"type":"Feature","geometry":{"type":"Point","coordinates":[120.807621,41.862374]},"properties":{"level":"district","name":"北票市","name:zh":"北票市"},"id":1659578104828},{"type":"Feature","geometry":{"type":"Point","coordinates":[119.264109,40.974253]},"properties":{"level":"district","name":"凌源市","name:zh":"凌源市"},"id":1659578104829},{"type":"Feature","geometry":{"type":"Point","coordinates":[120.21031,40.620597]},"properties":{"level":"city","name":"葫芦岛市","name:zh":"葫芦岛市"},"id":1659578104829},{"type":"Feature","geometry":{"type":"Point","coordinates":[120.608401,40.866683]},"properties":{"level":"district","name":"连山区","name:zh":"连山区"},"id":1659578104830},{"type":"Feature","geometry":{"type":"Point","coordinates":[120.905777,40.733458]},"properties":{"level":"district","name":"龙港区","name:zh":"龙港区"},"id":1659578104830},{"type":"Feature","geometry":{"type":"Point","coordinates":[120.77221,41.033551]},"properties":{"level":"district","name":"南票区","name:zh":"南票区"},"id":1659578104830},{"type":"Feature","geometry":{"type":"Point","coordinates":[120.031339,40.289624]},"properties":{"level":"district","name":"绥中县","name:zh":"绥中县"},"id":1659578104831},{"type":"Feature","geometry":{"type":"Point","coordinates":[119.827574,40.710576]},"properties":{"level":"district","name":"建昌县","name:zh":"建昌县"},"id":1659578104831},{"type":"Feature","geometry":{"type":"Point","coordinates":[120.469994,40.584045]},"properties":{"level":"district","name":"兴城市","name:zh":"兴城市"},"id":1659578104832},{"type":"Feature","geometry":{"type":"Point","coordinates":[106.711127,26.84011]},"properties":{"level":"city","name":"贵阳市","name:zh":"贵阳市"},"id":1659578104832},{"type":"Feature","geometry":{"type":"Point","coordinates":[106.782444,26.543889]},"properties":{"level":"district","name":"南明区","name:zh":"南明区"},"id":1659578104832},{"type":"Feature","geometry":{"type":"Point","coordinates":[106.691916,26.599849]},"properties":{"level":"district","name":"云岩区","name:zh":"云岩区"},"id":1659578104833},{"type":"Feature","geometry":{"type":"Point","coordinates":[106.657834,26.380219]},"properties":{"level":"district","name":"花溪区","name:zh":"花溪区"},"id":1659578104833},{"type":"Feature","geometry":{"type":"Point","coordinates":[106.875605,26.754776]},"properties":{"level":"district","name":"乌当区","name:zh":"乌当区"},"id":1659578104834},{"type":"Feature","geometry":{"type":"Point","coordinates":[106.685851,26.733517]},"properties":{"level":"district","name":"白云区","name:zh":"白云区"},"id":1659578104834},{"type":"Feature","geometry":{"type":"Point","coordinates":[106.55386,26.643557]},"properties":{"level":"district","name":"观山湖区","name:zh":"观山湖区"},"id":1659578104838},{"type":"Feature","geometry":{"type":"Point","coordinates":[107.040806,27.070201]},"properties":{"level":"district","name":"开阳县","name:zh":"开阳县"},"id":1659578104839},{"type":"Feature","geometry":{"type":"Point","coordinates":[106.67582,27.146125]},"properties":{"level":"district","name":"息烽县","name:zh":"息烽县"},"id":1659578104839},{"type":"Feature","geometry":{"type":"Point","coordinates":[106.58472,26.927148]},"properties":{"level":"district","name":"修文县","name:zh":"修文县"},"id":1659578104839},{"type":"Feature","geometry":{"type":"Point","coordinates":[106.335681,26.684809]},"properties":{"level":"district","name":"清镇市","name:zh":"清镇市"},"id":1659578104840},{"type":"Feature","geometry":{"type":"Point","coordinates":[104.89694,26.128029]},"properties":{"level":"city","name":"六盘水市","name:zh":"六盘水市"},"id":1659578104840},{"type":"Feature","geometry":{"type":"Point","coordinates":[104.903933,26.712904]},"properties":{"level":"district","name":"钟山区","name:zh":"钟山区"},"id":1659578104840},{"type":"Feature","geometry":{"type":"Point","coordinates":[105.37663,26.231018]},"properties":{"level":"district","name":"六枝特区","name:zh":"六枝特区"},"id":1659578104841},{"type":"Feature","geometry":{"type":"Point","coordinates":[104.921515,26.353861]},"properties":{"level":"district","name":"水城区","name:zh":"水城区"},"id":1659578104841},{"type":"Feature","geometry":{"type":"Point","coordinates":[104.66076,25.766657]},"properties":{"level":"district","name":"盘州市","name:zh":"盘州市"},"id":1659578104841},{"type":"Feature","geometry":{"type":"Point","coordinates":[107.089441,28.168743]},"properties":{"level":"city","name":"遵义市","name:zh":"遵义市"},"id":1659578104842},{"type":"Feature","geometry":{"type":"Point","coordinates":[107.103349,27.71204]},"properties":{"level":"district","name":"红花岗区","name:zh":"红花岗区"},"id":1659578104842},{"type":"Feature","geometry":{"type":"Point","coordinates":[106.822628,27.860367]},"properties":{"level":"district","name":"汇川区","name:zh":"汇川区"},"id":1659578104843},{"type":"Feature","geometry":{"type":"Point","coordinates":[106.815625,27.507382]},"properties":{"level":"district","name":"播州区","name:zh":"播州区"},"id":1659578104843},{"type":"Feature","geometry":{"type":"Point","coordinates":[106.880334,28.409528]},"properties":{"level":"district","name":"桐梓县","name:zh":"桐梓县"},"id":1659578104843},{"type":"Feature","geometry":{"type":"Point","coordinates":[107.197555,28.138605]},"properties":{"level":"district","name":"绥阳县","name:zh":"绥阳县"},"id":1659578104844},{"type":"Feature","geometry":{"type":"Point","coordinates":[107.404912,28.50088]},"properties":{"level":"district","name":"正安县","name:zh":"正安县"},"id":1659578104844},{"type":"Feature","geometry":{"type":"Point","coordinates":[107.610183,28.927796]},"properties":{"level":"district","name":"道真仡佬族苗族自治县","name:zh":"道真仡佬族苗族自治县"},"id":1659578104844},{"type":"Feature","geometry":{"type":"Point","coordinates":[107.913632,28.656176]},"properties":{"level":"district","name":"务川仡佬族苗族自治县","name:zh":"务川仡佬族苗族自治县"},"id":1659578104845},{"type":"Feature","geometry":{"type":"Point","coordinates":[107.764615,27.924274]},"properties":{"level":"district","name":"凤冈县","name:zh":"凤冈县"},"id":1659578104845},{"type":"Feature","geometry":{"type":"Point","coordinates":[107.484061,27.756]},"properties":{"level":"district","name":"湄潭县","name:zh":"湄潭县"},"id":1659578104845},{"type":"Feature","geometry":{"type":"Point","coordinates":[107.701578,27.389186]},"properties":{"level":"district","name":"余庆县","name:zh":"余庆县"},"id":1659578104846},{"type":"Feature","geometry":{"type":"Point","coordinates":[106.351195,28.349911]},"properties":{"level":"district","name":"习水县","name:zh":"习水县"},"id":1659578104846},{"type":"Feature","geometry":{"type":"Point","coordinates":[105.916744,28.487671]},"properties":{"level":"district","name":"赤水市","name:zh":"赤水市"},"id":1659578104847},{"type":"Feature","geometry":{"type":"Point","coordinates":[106.34162,27.834213]},"properties":{"level":"district","name":"仁怀市","name:zh":"仁怀市"},"id":1659578104847},{"type":"Feature","geometry":{"type":"Point","coordinates":[105.952866,25.993386]},"properties":{"level":"city","name":"安顺市","name:zh":"安顺市"},"id":1659578104847},{"type":"Feature","geometry":{"type":"Point","coordinates":[106.047565,26.190451]},"properties":{"level":"district","name":"西秀区","name:zh":"西秀区"},"id":1659578104848},{"type":"Feature","geometry":{"type":"Point","coordinates":[106.285539,26.403465]},"properties":{"level":"district","name":"平坝区","name:zh":"平坝区"},"id":1659578104848},{"type":"Feature","geometry":{"type":"Point","coordinates":[105.734736,26.339696]},"properties":{"level":"district","name":"普定县","name:zh":"普定县"},"id":1659578104848},{"type":"Feature","geometry":{"type":"Point","coordinates":[105.827135,25.838375]},"properties":{"level":"district","name":"镇宁布依族苗族自治县","name:zh":"镇宁布依族苗族自治县"},"id":1659578104849},{"type":"Feature","geometry":{"type":"Point","coordinates":[105.559806,25.857766]},"properties":{"level":"district","name":"关岭布依族苗族自治县","name:zh":"关岭布依族苗族自治县"},"id":1659578104849},{"type":"Feature","geometry":{"type":"Point","coordinates":[106.18289,25.695421]},"properties":{"level":"district","name":"紫云苗族布依族自治县","name:zh":"紫云苗族布依族自治县"},"id":1659578104849},{"type":"Feature","geometry":{"type":"Point","coordinates":[105.550244,27.113787]},"properties":{"level":"city","name":"毕节市","name:zh":"毕节市"},"id":1659578104850},{"type":"Feature","geometry":{"type":"Point","coordinates":[105.326785,27.402622]},"properties":{"level":"district","name":"七星关区","name:zh":"七星关区"},"id":1659578104850},{"type":"Feature","geometry":{"type":"Point","coordinates":[105.687541,27.224706]},"properties":{"level":"district","name":"大方县","name:zh":"大方县"},"id":1659578104851},{"type":"Feature","geometry":{"type":"Point","coordinates":[106.114881,27.0455]},"properties":{"level":"district","name":"黔西市","name:zh":"黔西市"},"id":1659578104851},{"type":"Feature","geometry":{"type":"Point","coordinates":[106.268426,27.444109]},"properties":{"level":"district","name":"金沙县","name:zh":"金沙县"},"id":1659578104851},{"type":"Feature","geometry":{"type":"Point","coordinates":[105.785837,26.642775]},"properties":{"level":"district","name":"织金县","name:zh":"织金县"},"id":1659578104851},{"type":"Feature","geometry":{"type":"Point","coordinates":[105.277844,26.802883]},"properties":{"level":"district","name":"纳雍县","name:zh":"纳雍县"},"id":1659578104852},{"type":"Feature","geometry":{"type":"Point","coordinates":[104.131091,26.906238]},"properties":{"level":"district","name":"威宁彝族回族苗族自治县","name:zh":"威宁彝族回族苗族自治县"},"id":1659578104852},{"type":"Feature","geometry":{"type":"Point","coordinates":[104.631378,27.130432]},"properties":{"level":"district","name":"赫章县","name:zh":"赫章县"},"id":1659578104852},{"type":"Feature","geometry":{"type":"Point","coordinates":[108.546322,27.969966]},"properties":{"level":"city","name":"铜仁市","name:zh":"铜仁市"},"id":1659578104853},{"type":"Feature","geometry":{"type":"Point","coordinates":[109.208951,27.716248]},"properties":{"level":"district","name":"碧江区","name:zh":"碧江区"},"id":1659578104853},{"type":"Feature","geometry":{"type":"Point","coordinates":[109.142839,27.546904]},"properties":{"level":"district","name":"万山区","name:zh":"万山区"},"id":1659578104854},{"type":"Feature","geometry":{"type":"Point","coordinates":[108.769409,27.721401]},"properties":{"level":"district","name":"江口县","name:zh":"江口县"},"id":1659578104854},{"type":"Feature","geometry":{"type":"Point","coordinates":[108.98248,27.327778]},"properties":{"level":"district","name":"玉屏侗族自治县","name:zh":"玉屏侗族自治县"},"id":1659578104854},{"type":"Feature","geometry":{"type":"Point","coordinates":[108.16185,27.485797]},"properties":{"level":"district","name":"石阡县","name:zh":"石阡县"},"id":1659578104855},{"type":"Feature","geometry":{"type":"Point","coordinates":[108.143482,27.844119]},"properties":{"level":"district","name":"思南县","name:zh":"思南县"},"id":1659578104855},{"type":"Feature","geometry":{"type":"Point","coordinates":[108.525417,27.992002]},"properties":{"level":"district","name":"印江土家族苗族自治县","name:zh":"印江土家族苗族自治县"},"id":1659578104855},{"type":"Feature","geometry":{"type":"Point","coordinates":[108.089156,28.259127]},"properties":{"level":"district","name":"德江县","name:zh":"德江县"},"id":1659578104856},{"type":"Feature","geometry":{"type":"Point","coordinates":[108.33803,28.619745]},"properties":{"level":"district","name":"沿河土家族自治县","name:zh":"沿河土家族自治县"},"id":1659578104856},{"type":"Feature","geometry":{"type":"Point","coordinates":[109.035988,28.122152]},"properties":{"level":"district","name":"松桃苗族自治县","name:zh":"松桃苗族自治县"},"id":1659578104856},{"type":"Feature","geometry":{"type":"Point","coordinates":[105.466954,25.263792]},"properties":{"level":"city","name":"黔西南布依族苗族自治州","name:zh":"黔西南布依族苗族自治州"},"id":1659578104857},{"type":"Feature","geometry":{"type":"Point","coordinates":[104.851329,24.996565]},"properties":{"level":"district","name":"兴义市","name:zh":"兴义市"},"id":1659578104857},{"type":"Feature","geometry":{"type":"Point","coordinates":[105.271994,25.49555]},"properties":{"level":"district","name":"兴仁市","name:zh":"兴仁市"},"id":1659578104858},{"type":"Feature","geometry":{"type":"Point","coordinates":[104.993622,25.721679]},"properties":{"level":"district","name":"普安县","name:zh":"普安县"},"id":1659578104858},{"type":"Feature","geometry":{"type":"Point","coordinates":[105.201903,25.835222]},"properties":{"level":"district","name":"晴隆县","name:zh":"晴隆县"},"id":1659578104858},{"type":"Feature","geometry":{"type":"Point","coordinates":[105.686901,25.416997]},"properties":{"level":"district","name":"贞丰县","name:zh":"贞丰县"},"id":1659578104858},{"type":"Feature","geometry":{"type":"Point","coordinates":[106.166103,25.22716]},"properties":{"level":"district","name":"望谟县","name:zh":"望谟县"},"id":1659578104859},{"type":"Feature","geometry":{"type":"Point","coordinates":[105.831341,24.918062]},"properties":{"level":"district","name":"册亨县","name:zh":"册亨县"},"id":1659578104859},{"type":"Feature","geometry":{"type":"Point","coordinates":[105.373138,25.135185]},"properties":{"level":"district","name":"安龙县","name:zh":"安龙县"},"id":1659578104859},{"type":"Feature","geometry":{"type":"Point","coordinates":[108.560041,26.50434]},"properties":{"level":"city","name":"黔东南苗族侗族自治州","name:zh":"黔东南苗族侗族自治州"},"id":1659578104860},{"type":"Feature","geometry":{"type":"Point","coordinates":[107.906876,26.609113]},"properties":{"level":"district","name":"凯里市","name:zh":"凯里市"},"id":1659578104860},{"type":"Feature","geometry":{"type":"Point","coordinates":[107.861767,26.947233]},"properties":{"level":"district","name":"黄平县","name:zh":"黄平县"},"id":1659578104861},{"type":"Feature","geometry":{"type":"Point","coordinates":[108.149478,27.063842]},"properties":{"level":"district","name":"施秉县","name:zh":"施秉县"},"id":1659578104861},{"type":"Feature","geometry":{"type":"Point","coordinates":[108.755667,26.934383]},"properties":{"level":"district","name":"三穗县","name:zh":"三穗县"},"id":1659578104861},{"type":"Feature","geometry":{"type":"Point","coordinates":[108.467787,27.115635]},"properties":{"level":"district","name":"镇远县","name:zh":"镇远县"},"id":1659578104862},{"type":"Feature","geometry":{"type":"Point","coordinates":[108.698193,27.358444]},"properties":{"level":"district","name":"岑巩县","name:zh":"岑巩县"},"id":1659578104862},{"type":"Feature","geometry":{"type":"Point","coordinates":[109.246946,26.921402]},"properties":{"level":"district","name":"天柱县","name:zh":"天柱县"},"id":1659578104862},{"type":"Feature","geometry":{"type":"Point","coordinates":[109.126379,26.559254]},"properties":{"level":"district","name":"锦屏县","name:zh":"锦屏县"},"id":1659578104863},{"type":"Feature","geometry":{"type":"Point","coordinates":[108.668206,26.650559]},"properties":{"level":"district","name":"剑河县","name:zh":"剑河县"},"id":1659578104863},{"type":"Feature","geometry":{"type":"Point","coordinates":[108.302641,26.639027]},"properties":{"level":"district","name":"台江县","name:zh":"台江县"},"id":1659578104863},{"type":"Feature","geometry":{"type":"Point","coordinates":[109.06652,26.15095]},"properties":{"level":"district","name":"黎平县","name:zh":"黎平县"},"id":1659578104864},{"type":"Feature","geometry":{"type":"Point","coordinates":[108.412384,26.03085]},"properties":{"level":"district","name":"榕江县","name:zh":"榕江县"},"id":1659578104864},{"type":"Feature","geometry":{"type":"Point","coordinates":[108.722995,25.713287]},"properties":{"level":"district","name":"从江县","name:zh":"从江县"},"id":1659578104865},{"type":"Feature","geometry":{"type":"Point","coordinates":[108.145834,26.339054]},"properties":{"level":"district","name":"雷山县","name:zh":"雷山县"},"id":1659578104865},{"type":"Feature","geometry":{"type":"Point","coordinates":[107.577738,26.444559]},"properties":{"level":"district","name":"麻江县","name:zh":"麻江县"},"id":1659578104865},{"type":"Feature","geometry":{"type":"Point","coordinates":[107.925108,26.22461]},"properties":{"level":"district","name":"丹寨县","name:zh":"丹寨县"},"id":1659578104866},{"type":"Feature","geometry":{"type":"Point","coordinates":[107.254401,26.014436]},"properties":{"level":"city","name":"黔南布依族苗族自治州","name:zh":"黔南布依族苗族自治州"},"id":1659578104866},{"type":"Feature","geometry":{"type":"Point","coordinates":[107.471383,26.146038]},"properties":{"level":"district","name":"都匀市","name:zh":"都匀市"},"id":1659578104866},{"type":"Feature","geometry":{"type":"Point","coordinates":[107.485875,26.771622]},"properties":{"level":"district","name":"福泉市","name:zh":"福泉市"},"id":1659578104867},{"type":"Feature","geometry":{"type":"Point","coordinates":[107.923071,25.395142]},"properties":{"level":"district","name":"荔波县","name:zh":"荔波县"},"id":1659578104867},{"type":"Feature","geometry":{"type":"Point","coordinates":[107.19864,26.426891]},"properties":{"level":"district","name":"贵定县","name:zh":"贵定县"},"id":1659578104867},{"type":"Feature","geometry":{"type":"Point","coordinates":[107.415043,27.16651]},"properties":{"level":"district","name":"瓮安县","name:zh":"瓮安县"},"id":1659578104868},{"type":"Feature","geometry":{"type":"Point","coordinates":[107.557555,25.630225]},"properties":{"level":"district","name":"独山县","name:zh":"独山县"},"id":1659578104868},{"type":"Feature","geometry":{"type":"Point","coordinates":[107.10723,25.783963]},"properties":{"level":"district","name":"平塘县","name:zh":"平塘县"},"id":1659578104868},{"type":"Feature","geometry":{"type":"Point","coordinates":[106.703946,25.413196]},"properties":{"level":"district","name":"罗甸县","name:zh":"罗甸县"},"id":1659578104869},{"type":"Feature","geometry":{"type":"Point","coordinates":[106.398233,25.994911]},"properties":{"level":"district","name":"长顺县","name:zh":"长顺县"},"id":1659578104869},{"type":"Feature","geometry":{"type":"Point","coordinates":[106.990086,26.500703]},"properties":{"level":"district","name":"龙里县","name:zh":"龙里县"},"id":1659578104869},{"type":"Feature","geometry":{"type":"Point","coordinates":[106.716953,25.977497]},"properties":{"level":"district","name":"惠水县","name:zh":"惠水县"},"id":1659578104870},{"type":"Feature","geometry":{"type":"Point","coordinates":[107.950017,25.846399]},"properties":{"level":"district","name":"三都水族自治县","name:zh":"三都水族自治县"},"id":1659578104870},{"type":"Feature","geometry":{"type":"Point","coordinates":[91.091762,30.037072]},"properties":{"level":"city","name":"拉萨市","name:zh":"拉萨市"},"id":1659578104870},{"type":"Feature","geometry":{"type":"Point","coordinates":[91.161888,29.660642]},"properties":{"level":"district","name":"城关区","name:zh":"城关区"},"id":1659578104870},{"type":"Feature","geometry":{"type":"Point","coordinates":[90.789741,29.802076]},"properties":{"level":"district","name":"堆龙德庆区","name:zh":"堆龙德庆区"},"id":1659578104874},{"type":"Feature","geometry":{"type":"Point","coordinates":[91.466881,29.740597]},"properties":{"level":"district","name":"达孜区","name:zh":"达孜区"},"id":1659578104875},{"type":"Feature","geometry":{"type":"Point","coordinates":[91.343553,30.112365]},"properties":{"level":"district","name":"林周县","name:zh":"林周县"},"id":1659578104875},{"type":"Feature","geometry":{"type":"Point","coordinates":[90.883319,30.418793]},"properties":{"level":"district","name":"当雄县","name:zh":"当雄县"},"id":1659578104876},{"type":"Feature","geometry":{"type":"Point","coordinates":[90.087816,29.59647]},"properties":{"level":"district","name":"尼木县","name:zh":"尼木县"},"id":1659578104876},{"type":"Feature","geometry":{"type":"Point","coordinates":[90.705378,29.438569]},"properties":{"level":"district","name":"曲水县","name:zh":"曲水县"},"id":1659578104876},{"type":"Feature","geometry":{"type":"Point","coordinates":[92.026909,29.910067]},"properties":{"level":"district","name":"墨竹工卡县","name:zh":"墨竹工卡县"},"id":1659578104876},{"type":"Feature","geometry":{"type":"Point","coordinates":[86.477854,29.498529]},"properties":{"level":"city","name":"日喀则市","name:zh":"日喀则市"},"id":1659578104877},{"type":"Feature","geometry":{"type":"Point","coordinates":[88.951233,29.261615]},"properties":{"level":"district","name":"桑珠孜区","name:zh":"桑珠孜区"},"id":1659578104878},{"type":"Feature","geometry":{"type":"Point","coordinates":[89.374655,29.809477]},"properties":{"level":"district","name":"南木林县","name:zh":"南木林县"},"id":1659578104878},{"type":"Feature","geometry":{"type":"Point","coordinates":[89.663374,28.903864]},"properties":{"level":"district","name":"江孜县","name:zh":"江孜县"},"id":1659578104878},{"type":"Feature","geometry":{"type":"Point","coordinates":[86.993064,28.47135]},"properties":{"level":"district","name":"定日县","name:zh":"定日县"},"id":1659578104879},{"type":"Feature","geometry":{"type":"Point","coordinates":[88.342235,28.847156]},"properties":{"level":"district","name":"萨迦县","name:zh":"萨迦县"},"id":1659578104879},{"type":"Feature","geometry":{"type":"Point","coordinates":[87.851517,29.172171]},"properties":{"level":"district","name":"拉孜县","name:zh":"拉孜县"},"id":1659578104879},{"type":"Feature","geometry":{"type":"Point","coordinates":[86.647755,29.914846]},"properties":{"level":"district","name":"昂仁县","name:zh":"昂仁县"},"id":1659578104880},{"type":"Feature","geometry":{"type":"Point","coordinates":[88.075375,29.909197]},"properties":{"level":"district","name":"谢通门县","name:zh":"谢通门县"},"id":1659578104880},{"type":"Feature","geometry":{"type":"Point","coordinates":[89.098067,28.811026]},"properties":{"level":"district","name":"白朗县","name:zh":"白朗县"},"id":1659578104880},{"type":"Feature","geometry":{"type":"Point","coordinates":[89.969367,29.217633]},"properties":{"level":"district","name":"仁布县","name:zh":"仁布县"},"id":1659578104881},{"type":"Feature","geometry":{"type":"Point","coordinates":[89.646821,28.437105]},"properties":{"level":"district","name":"康马县","name:zh":"康马县"},"id":1659578104881},{"type":"Feature","geometry":{"type":"Point","coordinates":[87.90725,28.230479]},"properties":{"level":"district","name":"定结县","name:zh":"定结县"},"id":1659578104881},{"type":"Feature","geometry":{"type":"Point","coordinates":[83.656298,30.478688]},"properties":{"level":"district","name":"仲巴县","name:zh":"仲巴县"},"id":1659578104882},{"type":"Feature","geometry":{"type":"Point","coordinates":[89.073416,27.808115]},"properties":{"level":"district","name":"亚东县","name:zh":"亚东县"},"id":1659578104882},{"type":"Feature","geometry":{"type":"Point","coordinates":[85.299167,28.86175]},"properties":{"level":"district","name":"吉隆县","name:zh":"吉隆县"},"id":1659578104882},{"type":"Feature","geometry":{"type":"Point","coordinates":[86.060205,28.592979]},"properties":{"level":"district","name":"聂拉木县","name:zh":"聂拉木县"},"id":1659578104883},{"type":"Feature","geometry":{"type":"Point","coordinates":[85.076198,29.397676]},"properties":{"level":"district","name":"萨嘎县","name:zh":"萨嘎县"},"id":1659578104883},{"type":"Feature","geometry":{"type":"Point","coordinates":[88.565972,28.309025]},"properties":{"level":"district","name":"岗巴县","name:zh":"岗巴县"},"id":1659578104883},{"type":"Feature","geometry":{"type":"Point","coordinates":[97.035183,30.783725]},"properties":{"level":"city","name":"昌都市","name:zh":"昌都市"},"id":1659578104884},{"type":"Feature","geometry":{"type":"Point","coordinates":[97.238019,31.442572]},"properties":{"level":"district","name":"卡若区","name:zh":"卡若区"},"id":1659578104884},{"type":"Feature","geometry":{"type":"Point","coordinates":[98.035567,31.803633]},"properties":{"level":"district","name":"江达县","name:zh":"江达县"},"id":1659578104885},{"type":"Feature","geometry":{"type":"Point","coordinates":[98.488712,30.741403]},"properties":{"level":"district","name":"贡觉县","name:zh":"贡觉县"},"id":1659578104885},{"type":"Feature","geometry":{"type":"Point","coordinates":[96.403052,31.427845]},"properties":{"level":"district","name":"类乌齐县","name:zh":"类乌齐县"},"id":1659578104886},{"type":"Feature","geometry":{"type":"Point","coordinates":[95.315823,31.665971]},"properties":{"level":"district","name":"丁青县","name:zh":"丁青县"},"id":1659578104886},{"type":"Feature","geometry":{"type":"Point","coordinates":[97.840509,30.581063]},"properties":{"level":"district","name":"察雅县","name:zh":"察雅县"},"id":1659578104886},{"type":"Feature","geometry":{"type":"Point","coordinates":[96.876855,30.158147]},"properties":{"level":"district","name":"八宿县","name:zh":"八宿县"},"id":1659578104887},{"type":"Feature","geometry":{"type":"Point","coordinates":[97.801161,29.557968]},"properties":{"level":"district","name":"左贡县","name:zh":"左贡县"},"id":1659578104887},{"type":"Feature","geometry":{"type":"Point","coordinates":[98.61533,29.614572]},"properties":{"level":"district","name":"芒康县","name:zh":"芒康县"},"id":1659578104887},{"type":"Feature","geometry":{"type":"Point","coordinates":[95.907566,30.731554]},"properties":{"level":"district","name":"洛隆县","name:zh":"洛隆县"},"id":1659578104888},{"type":"Feature","geometry":{"type":"Point","coordinates":[94.594782,30.885255]},"properties":{"level":"district","name":"边坝县","name:zh":"边坝县"},"id":1659578104888},{"type":"Feature","geometry":{"type":"Point","coordinates":[95.239298,29.198982]},"properties":{"level":"city","name":"林芝市","name:zh":"林芝市"},"id":1659578104889},{"type":"Feature","geometry":{"type":"Point","coordinates":[94.375395,29.77645]},"properties":{"level":"district","name":"巴宜区","name:zh":"巴宜区"},"id":1659578104889},{"type":"Feature","geometry":{"type":"Point","coordinates":[93.236424,30.018359]},"properties":{"level":"district","name":"工布江达县","name:zh":"工布江达县"},"id":1659578104889},{"type":"Feature","geometry":{"type":"Point","coordinates":[94.010229,29.242149]},"properties":{"level":"district","name":"米林县","name:zh":"米林县"},"id":1659578104890},{"type":"Feature","geometry":{"type":"Point","coordinates":[95.003154,28.723177]},"properties":{"level":"district","name":"墨脱县","name:zh":"墨脱县"},"id":1659578104890},{"type":"Feature","geometry":{"type":"Point","coordinates":[95.549302,30.11911]},"properties":{"level":"district","name":"波密县","name:zh":"波密县"},"id":1659578104890},{"type":"Feature","geometry":{"type":"Point","coordinates":[97.057384,28.677849]},"properties":{"level":"district","name":"察隅县","name:zh":"察隅县"},"id":1659578104891},